%time,x,y,z,q0,q1,q2,q3,yaw,floor
0.0008358955383300781,15.59977118226061,16.448275834773256,0.80322202478344,-0.0641902209776342,0.1970596576187352,0.8536260882248452,-0.4778803285049282,-2.137301992945448,FLD01
0.0067958831787109375,15.596036695757903,16.442977391509487,0.802365957357426,-0.0660454707201738,0.1973956187752767,0.8497634928320805,-0.4843294041615672,-2.122056880321728,FLD01
0.01875591278076172,15.592250646819139,16.43772676013492,0.801521734693843,-0.0679823732257623,0.1977318036463118,0.8459625200384139,-0.490538424027747,-2.107256949112859,FLD01
0.030796051025390625,15.588405227919338,16.432537497956446,0.800699029424759,-0.0700357048267547,0.1980843320765328,0.8422030829618614,-0.4965395900477116,-2.0928199194130728,FLD01
0.03683590888977051,15.584499792271345,16.42742445625754,0.799905767468769,-0.0722390598582428,0.1984900117118416,0.8384353917483354,-0.5024035502912431,-2.0785751637630008,FLD01
0.04881596565246582,15.580537433913378,16.422396962883283,0.799151376904104,-0.074604433093297,0.198948227769682,0.834613472142437,-0.5082067820764262,-2.0643423290883898,FLD01
0.060816049575805664,15.576519406264651,16.417460843795936,0.798444347178819,-0.0771240933953026,0.1994576898248414,0.8307488897980531,-0.5139307212912965,-2.050164870574672,FLD01
0.06668591499328613,15.572440088008989,16.412616697535157,0.797787410916059,-0.0797920739450999,0.1999725806079162,0.8268812152619466,-0.5195302183583517,-2.036145697619757,FLD01
0.07874584197998047,15.56829843736341,16.40786363344472,0.797184277931504,-0.0826088582107096,0.2005292180990205,0.8229862618531797,-0.5250308772202336,-2.022225721509969,FLD01
0.09076595306396484,15.564106891281426,16.403199212814854,0.796633166355582,-0.0855502524405723,0.2011830813120393,0.8190589139670301,-0.5304234323182724,-2.008437141120756,FLD01
0.09685611724853516,15.559882178945827,16.398615526667243,0.796136165659621,-0.0885642770792303,0.201949291313912,0.8151091599467492,-0.5356957251408182,-1.9948301773064896,FLD01
0.10897588729858398,15.555636936637256,16.394100131228242,0.79570026009807,-0.0915992697631825,0.2027990457873361,0.8112038850153293,-0.5407683216892739,-1.9816132308528729,FLD01
0.12072610855102539,15.551377047946971,16.389636398677226,0.795336342072566,-0.0946455943617785,0.2036364741316214,0.8073734288736036,-0.5456395735465192,-1.9687944239378643,FLD01
0.126755952835083,15.547104072614275,16.38521348141063,0.795061150948736,-0.0976888369671266,0.2043923917475801,0.8036354701480074,-0.5503187007977332,-1.9563601755729745,FLD01
0.1387958526611328,15.542832858132442,16.38082154604598,0.794896990630001,-0.1006784704520792,0.2050414156007032,0.7999693863771484,-0.5548611036423963,-1.9442062807555944,FLD01
0.15082597732543945,15.538579081533044,16.376451463993646,0.79487444073738,-0.1035288906127998,0.2055505761308719,0.7963630524055407,-0.5593179938318448,-1.9322551306987776,FLD01
0.15680599212646484,15.534352242835666,16.37209580470693,0.795017992853861,-0.1062112969703499,0.205874125550362,0.7928129114145706,-0.5637221765365474,-1.920445965650018,FLD01
0.16882610321044922,15.530158133250097,16.367748178228965,0.795337623297189,-0.108705821527592,0.205940675503762,0.7893134521090646,-0.5681159713110845,-1.9086897810440593,FLD01
0.1807858943939209,15.526007470973582,16.36341995512919,0.795823131089845,-0.1110079236691299,0.2057607340117591,0.7858628311791418,-0.5725027264500269,-1.896984862912737,FLD01
0.18682599067687988,15.521922673591689,16.359135941522084,0.796441897324222,-0.1131117071984219,0.2053898953906913,0.7824282350482452,-0.5769114226337932,-1.885268739967944,FLD01
0.19881606101989746,15.51793007201195,16.354921471689124,0.797154721638426,-0.1149794756936377,0.204857800089251,0.7790055423760033,-0.5813461678374405,-1.8735533111507845,FLD01
0.210845947265625,15.514049605595119,16.350796711931196,0.797919475728845,-0.1165631447711655,0.2041441480497031,0.775641068152337,-0.5857637181437741,-1.8619700340526648,FLD01
0.21675610542297363,15.510284168420185,16.34677723026124,0.798696727042896,-0.1178316839885489,0.2031896024207484,0.772352699628015,-0.5901703034665825,-1.8505212473364223,FLD01
0.22875595092773438,15.506633675995545,16.34288336122046,0.799453739129337,-0.1188277973507257,0.202004413977506,0.7690967611879879,-0.5946127674718452,-1.8390718021171024,FLD01
0.24082589149475098,15.50310480732469,16.339134956183045,0.800163856976613,-0.119559033073577,0.2006550825198289,0.7658627981822882,-0.5990804201690019,-1.8276448650503136,FLD01
0.2468559741973877,15.499700414749896,16.335544024511876,0.800817388075696,-0.1200303558006147,0.1991484514444793,0.7626064871972345,-0.6036256734585913,-1.816106512404096,FLD01
0.2588160037994385,15.496411882067605,16.332115564718436,0.801414672793284,-0.1202593268097451,0.1974338500276949,0.7593130797161203,-0.6082772526985777,-1.8043711054631315,FLD01
0.27072596549987793,15.493225993785927,16.328846602569513,0.801959132318689,-0.1202836729740048,0.1954979505004449,0.7559278034519986,-0.6130950540774612,-1.7922629473370648,FLD01
0.27684593200683594,15.490132335786257,16.325734850024446,0.802457069945351,-0.1201598973622829,0.1933771783345698,0.752411941673191,-0.6180963808281231,-1.7797013447551095,FLD01
0.2888460159301758,15.487138078073713,16.32277753514552,0.802916850239519,-0.1199350224532743,0.1911615605131319,0.7487399177017888,-0.6232667035958486,-1.7666907385061794,FLD01
0.3008458614349365,15.484251523662806,16.319970421749645,0.803347426492543,-0.1196254743859419,0.1889011570373555,0.7449276605576819,-0.6285609590834814,-1.753328848508565,FLD01
0.306826114654541,15.481477694321711,16.31730985635346,0.803753705592597,-0.1192517373395949,0.1866057029042055,0.7409974294537065,-0.6339401740922521,-1.7396974681554311,FLD01
0.3188059329986572,15.478814673676425,16.314787773401918,0.804135271206492,-0.1188413241134284,0.1843041612159032,0.7369740079515757,-0.6393575114482193,-1.7258979098199565,FLD01
0.3306159973144531,15.476255517278332,16.312400761799438,0.804489282387937,-0.1184640682889936,0.1820521538661159,0.7328354044231242,-0.6448065972220856,-1.711908799382745,FLD01
0.3368558883666992,15.473801310524777,16.310159009536278,0.804809962335804,-0.1181647279728677,0.1799346169070095,0.7285782838518424,-0.6502571145332667,-1.697785184277107,FLD01
0.3426859378814697,15.471453944217956,16.308071273348276,0.805093611947613,-0.1179604547474119,0.1779833667506111,0.7242194054477555,-0.6556778973313047,-1.6835994105163783,FLD01
0.34880590438842773,15.469205753960978,16.30613967254311,0.805337415935894,-0.1178850149832062,0.176144947342633,0.7197868663135953,-0.661046857530179,-1.669392985244426,FLD01
0.36075592041015625,15.467046025659783,16.304360140506446,0.805537190156091,-0.1179894642299068,0.1743814888172359,0.7152966660187395,-0.666348454092226,-1.6551835520800593,FLD01
0.36684584617614746,15.464964791369312,16.30273142089493,0.80569049024956,-0.118305985861455,0.1726710039594343,0.7107527551510421,-0.6715794362145054,-1.6409660291536463,FLD01
0.3788259029388428,15.462960649851539,16.301263225878643,0.805797199262546,-0.1188460547102066,0.1710615643272491,0.7061788514166257,-0.6767015489132769,-1.6268405444700629,FLD01
0.39081597328186035,15.46103628494211,16.29995448029797,0.805857349340853,-0.1195572788300199,0.1695480371557519,0.7015991497693825,-0.6817023934373946,-1.6128691631822736,FLD01
0.39682602882385254,15.459189510242595,16.298794494005392,0.805875398054284,-0.1203870785624339,0.1680772268019215,0.6970310205530477,-0.6865892174601599,-1.5990605759207777,FLD01
0.40866589546203613,15.457417930024349,16.297771130522563,0.805853305612995,-0.121294301692508,0.166607374510435,0.6924752932703956,-0.6913809683132348,-1.585385364623464,FLD01
0.42079591751098633,15.455718108324163,16.296876956486358,0.805790922913137,0.1222574384364986,-0.1651270802569348,-0.6879004646339603,0.6961171717959176,-1.571746139963885,FLD01
0.42667603492736816,15.454089218478657,16.296115183029883,0.805689869652335,0.1232806316845114,-0.1636307727569647,-0.6832961688521828,0.700808962335925,-1.5581098282218495,FLD01
0.43878602981567383,15.4525359970703,16.295485129805115,0.805555343590651,0.1242886511850857,-0.1621113924507687,-0.6786634819082309,0.7054701311525964,-1.544474274768172,FLD01
0.4507460594177246,15.45106012455335,16.29497735243916,0.805394215873222,0.1252174151934104,-0.1605139990026703,-0.6740070818544664,0.7101199255523524,-1.5308162193959132,FLD01
0.4567759037017822,15.449662603954948,16.29458205617533,0.805212404501491,0.1260616647950012,-0.1588185744413704,-0.6693057282948848,0.714783155336762,-1.5170661462700197,FLD01
0.46877598762512207,15.448336599988124,16.29429849902948,0.80500988303862,0.1268754591311514,-0.1569949761103979,-0.6645470996350425,0.7194667106357373,-1.5031744185869802,FLD01
0.4806959629058838,15.447079542228039,16.2941360663292,0.804786650507908,0.1276980638768113,-0.1550225186117538,-0.6596976759188555,0.7241962438404681,-1.4890429262425866,FLD01
0.4868159294128418,15.44589502763165,16.294105487925833,0.804548997115531,0.1285316119878552,-0.1529282842661663,-0.6547828848523541,0.728938912595314,-1.474760955344038,FLD01
0.49881601333618164,15.444792502512882,16.294209686184445,0.80430125419016,0.1293378848279043,-0.150712802856387,-0.6498269687827687,0.7336772268825126,-1.4603959043774468,FLD01
0.5107660293579102,15.443774829071572,16.294446843709636,0.804044100451266,0.1301269811589219,-0.1483536419172317,-0.6448423535275755,0.7384013169011664,-1.445969619678475,FLD01
0.5168459415435791,15.442842985561128,16.294825424861074,0.803779913943395,0.1309403672759697,-0.1458918400114069,-0.6398327113805615,0.7430910392967467,-1.431518574554632,FLD01
0.5287559032440186,15.441997896588418,16.29536042942607,0.803511125939119,0.1318288963219985,-0.1433668822055999,-0.6347901722044581,0.7477355926086465,-1.4170470674092968,FLD01
0.540816068649292,15.441242099540432,16.29606144396132,0.803240845018216,0.1327916715818672,-0.1408382207913861,-0.6297156381180341,0.7523225256712757,-1.4025915530009283,FLD01
0.5468358993530273,15.440582829615778,16.296928332500727,0.80296983019391,0.1337893749566731,-0.1383077924687447,-0.6245731212962835,0.7568882175363436,-1.3880600547511324,FLD01
0.5648159980773926,15.4400219938575,16.297958156547907,0.802699173900042,0.1348197165381284,-0.1357990504500459,-0.6193098937658704,0.7614706280698887,-1.3733321959889693,FLD01
0.5708458423614502,15.439559894816284,16.299154964674642,0.802432998072371,0.1359040018320049,-0.1333556006132182,-0.6139068486249963,0.7660709936307862,-1.3583853959637322,FLD01
0.576836109161377,15.439193450484254,16.30052861769451,0.80217737035762,0.1370764810983907,-0.1310357419157128,-0.6083453260632024,0.770685173678161,-1.3432056540131696,FLD01
0.5888159275054932,15.438918492184712,16.302087323635646,0.801938580388789,0.1383487642059632,-0.1288606189081581,-0.6025943310765902,0.7753287254395042,-1.3277281207009113,FLD01
0.6007459163665771,15.438739266243374,16.303831120674545,0.801718458302976,0.1396731867188161,-0.1268139492090693,-0.5966036443397731,0.780047251618972,-1.3118220550208195,FLD01
0.6067759990692139,15.438653798544237,16.305758239722536,0.80151461689456,0.1410559366787344,-0.1248773126627314,-0.5903568442690657,0.7848488236179559,-1.2954429486366894,FLD01
0.6187660694122314,15.438659604150871,16.307873661862857,0.80132387391472,0.1425074331030152,-0.123048615528388,-0.5838848462606336,0.7897019412627355,-1.278671814694559,FLD01
0.6306960582733154,15.438748613403732,16.310186169869098,0.801143562376708,0.1440638986135628,-0.1213615019524117,-0.5772194472199638,0.7945657233427549,-1.261608131772844,FLD01
0.6367359161376953,15.438907923067745,16.31270017451044,0.800970515902087,0.1457199714017354,-0.1197838550988368,-0.5703701316857445,0.7994344443874837,-1.2442623585037873,FLD01
0.6488161087036133,15.439140254823087,16.31540285558674,0.800795759618844,0.1470114669931286,-0.1181576170737657,-0.5631438440492519,0.8045467152436888,-1.2260930542782127,FLD01
0.6607561111450195,15.439440663631558,16.318309013643443,0.800631186864752,0.1487716627972208,-0.1165569500977283,-0.5559674063867985,0.8094329575499147,-1.2081759120375202,FLD01
0.6667459011077881,15.439809831569619,16.321406848451318,0.800469191965831,0.1505099356013015,-0.1149717872327454,-0.5486224754454379,0.8143350826667856,-1.189977724163193,FLD01
0.6788060665130615,15.440238773187502,16.32469545106477,0.800312220227908,0.1522687759016857,-0.1133857278906556,-0.541155053174832,0.8192124907613733,-1.1716029636429146,FLD01
0.6908059120178223,15.440716459795567,16.328170564564914,0.800165940964746,0.1540378528221506,-0.111757765067467,-0.5335745503414103,0.8240635540254333,-1.1530556924434092,FLD01
0.6967959403991699,15.441244989883671,16.33182311153837,0.800030972006986,0.1557627292192882,-0.1100445000884177,-0.5258415787930273,0.8289263020310704,-1.1342248282466496,FLD01
0.7087459564208984,15.441835234360497,16.335646522026707,0.799907116386574,0.1573831173498164,-0.1082606077609449,-0.5179859076777328,0.833787019944398,-1.1151890004816578,FLD01
0.7206859588623047,15.442496116467737,16.339640284452912,0.799794559242286,0.1588885419183449,-0.1064486288077428,-0.5100938006945693,0.8385865698691953,-1.096168161714704,FLD01
0.7267661094665527,15.443222981023155,16.34380478611854,0.799690651121678,0.1602991544473666,-0.1046167470696032,-0.5022160747947452,0.8432903008654806,-1.077280464472972,FLD01
0.7386760711669922,15.44400083966093,16.34813826562464,0.799594464523554,0.1616481988054674,-0.1027401428481569,-0.494322525863882,0.8479148325710785,-1.0584422987945403,FLD01
0.7507760524749756,15.444825207756367,16.352635550711284,0.79950227594184,0.1629226711722925,-0.1008079798831868,-0.4863196151693348,0.8525181442711388,-1.039434841934303,FLD01
0.756756067276001,15.4456999216236,16.357296367417575,0.799409002544779,0.1640967723579829,-0.0988388536043163,-0.4782047465486622,0.8571017154913451,-1.0202616436608405,FLD01
0.7687058448791504,15.446628843441431,16.3621304253046,0.799308119533209,0.1651804192694652,-0.0968996581247413,-0.4700355514221789,0.8616219970175553,-1.0010826203385894,FLD01
0.7807459831237793,15.447599432133757,16.36714320010583,0.799192763447158,0.1662091382530835,-0.094990933304858,-0.4618801897008485,0.8660357586802913,-0.9820481635501274,FLD01
0.7868161201477051,15.448586804162915,16.372329512229953,0.799060461068958,0.1672596860012932,-0.0930448378145646,-0.4536717052616354,0.8703728163492985,-0.9629766236610126,FLD01
0.8047659397125244,15.449577697540008,16.377681939210277,0.798914019694969,0.1683344677555757,-0.0910322760090432,-0.4452959883762699,0.8746931544410652,-0.9436027460637124,FLD01
0.8108160495758057,15.45057428334394,16.383197126257585,0.798757497815477,0.1693814461121325,-0.0889681419425314,-0.4367333163752876,0.8790100146187751,-0.923892215171499,FLD01
0.8167860507965088,15.451579825367844,16.388877525602823,0.798594989940395,0.1704010063751922,-0.0868986242116007,-0.4280632783263376,0.883274564269209,-0.9040417345692758,FLD01
0.8287558555603027,15.452587823782324,16.394720594969897,0.798432016478002,0.171402335357967,-0.0848189523505548,-0.4193912685710855,0.8874333488225046,-0.8842781885908961,FLD01
0.8408558368682861,15.453587251272893,16.40071883621141,0.798271550035712,0.1724016333227722,-0.0827000147969605,-0.410699093209898,0.891495731463023,-0.8645467659036699,FLD01
0.8468358516693115,15.454575076810215,16.406870771343335,0.798115994089606,0.1733964199716944,-0.0805504731458175,-0.4019293456163681,0.8954876347272378,-0.8447252760762476,FLD01
0.8588459491729736,15.455558237315017,16.41317816127645,0.797966543850437,0.1743485766731888,-0.0784205983802653,-0.3930804023077703,0.8994112412480042,-0.8248305293947038,FLD01
0.8707859516143799,15.456543411009989,16.41963980256304,0.797823321607579,0.1752277447247537,-0.0763294927488301,-0.384206864595429,0.9032464399116846,-0.8049858587343056,FLD01
0.8768160343170166,15.457524772221404,16.42624608079967,0.797689143315249,0.1760483880296213,-0.0742884808534383,-0.3753858801123294,0.90695844871579,-0.7853572927370225,FLD01
0.8888258934020996,15.45848676049718,16.43297582015026,0.797563370031064,0.1768144271381797,-0.0722530131530768,-0.3665682265570675,0.9105733884344002,-0.7658176677821465,FLD01
0.9008359909057617,15.45941858611559,16.439813092329814,0.797443143855119,0.1775413229495881,-0.0702277617794998,-0.3576169504438953,0.9141429083441824,-0.7460773110904114,FLD01
0.9067559242248535,15.460317389934971,16.446748084069668,0.797318906419448,0.1782052673141225,-0.0681918884046038,-0.3485135943040927,0.9176769712935804,-0.7260893161204033,FLD01
0.9187560081481934,15.461182531123995,16.453776264349926,0.797181541771048,0.1787720002528505,-0.0661692380223128,-0.3393274106931812,0.9211509714576664,-0.7060091384217622,FLD01
0.9306559562683105,15.46200745569422,16.460891467218858,0.797021787366766,0.1792254206777001,-0.0641824080180759,-0.3301714643408394,0.9245245649624072,-0.6860806666001052,FLD01
0.9366960525512695,15.462775677421632,16.46807587925008,0.796831042505333,0.1795966647861898,-0.0621784933420775,-0.3210765317999929,0.9277870087960244,-0.6663429563198155,FLD01
0.9488060474395752,15.463478577523347,16.475313771293315,0.796600325258842,0.1798840078541704,-0.0601344312930653,-0.3119435621800345,0.9309762660271266,-0.6465778771115043,FLD01
0.9608359336853027,15.464118126958965,16.482600548265168,0.796324945079189,0.1800722192732221,-0.0580733445726405,-0.3027413430782039,0.934103399890702,-0.626728703218323,FLD01
0.9668059349060059,15.464702573363411,16.489931687951128,0.796007305676344,0.1801247721433004,-0.0560064967882062,-0.2935556963609875,0.9371464090054724,-0.6069755047319434,FLD01
0.9787158966064453,15.465240966617785,16.497294966285494,0.795667282773942,0.1800141149293392,-0.0539305989330748,-0.2844879547519856,0.9400813861182226,-0.5875222947089697,FLD01
0.9908459186553955,15.465740780845408,16.504662606100112,0.795336812477868,0.1797445976225215,-0.0517575855246092,-0.2755887444887327,0.942901837879906,-0.5684341997530489,FLD01
0.9967861175537109,15.46621854210889,16.512016375209214,0.795054225288475,0.1793104535979624,-0.0494787080525684,-0.2668189393838664,0.9456253339806472,-0.549624136950703,FLD01
1.0088260173797607,15.466692916993907,16.51935446569115,0.794856156261585,0.1787323783167564,-0.0471618943493433,-0.2581841248939303,0.948246513473882,-0.5311267221789178,FLD01
1.0208361148834229,15.46718248196612,16.526674866472376,0.7947620286172,0.1779879916818546,-0.0448785973432766,-0.2497156096310939,0.9507619579180328,-0.5130295300020923,FLD01
1.026885986328125,15.46769188579674,16.533967011106427,0.794777876437162,0.1771294050474177,-0.0426495184513008,-0.2414675165963459,0.9531524698977668,-0.4954458735992124,FLD01
1.0447359085083008,15.468212517077518,16.541215344501325,0.794896531804874,0.1762552192501924,-0.0404293947659412,-0.2333819077029537,0.955422653532381,-0.4782365583972141,FLD01
1.0507760047912598,15.468731721492077,16.548407946311727,0.79510179915158,0.175441406774653,-0.038149819682011,-0.2253076267123404,0.9576018887786372,-0.4610671993122618,FLD01
1.056675910949707,15.469242250283969,16.5555534332114,0.795373346592933,0.1747456408434359,-0.0358502541083882,-0.2172002786773123,0.959688886686242,-0.4438610364469397,FLD01
1.0688660144805908,15.469744916642867,16.56266746882642,0.795688942915955,0.1741942228559371,-0.0335655333328306,-0.2091274614780296,0.9616628476505964,-0.4267652204605239,FLD01
1.0807960033416748,15.470240952430231,16.569752133254838,0.796030201323134,0.1738352566619425,-0.0312718487670301,-0.2011606419214297,0.9635028651528376,-0.4099120528121545,FLD01
1.0868358612060547,15.470730153042041,16.576797481880533,0.796380186714184,0.1737072554889242,-0.0289579922603259,-0.1933492384180334,0.9651959884282172,-0.3933931747882666,FLD01
1.0988459587097168,15.471214497218625,16.583792041283118,0.796727883204221,0.1738522624513939,-0.0266122107376719,-0.1856165242135288,0.9667542019660808,-0.3770462528797606,FLD01
1.1109058856964111,15.471700799460905,16.590736834798918,0.797066777389239,0.1742445317367928,-0.0242974408657151,-0.1778864889416683,0.9681967127496398,-0.3607382091704715,FLD01
1.1168959140777588,15.472203040993008,16.59764289843821,0.797396314114606,0.1747923493172745,-0.0221072320371201,-0.1701934697895832,0.9695324067573952,-0.3445691988302263,FLD01
1.1287858486175537,15.472736485492533,16.604511086555192,0.797720497864712,0.1754158656550729,-0.0200656449396901,-0.1625786708982703,0.9707702198453492,-0.3286287684588491,FLD01
1.1407461166381836,15.473311352948713,16.61132413575234,0.7980423862274,0.1760317629303883,-0.0181160492898906,-0.1550242651099585,0.9719321501138148,-0.3128608200578007,FLD01
1.1467258930206299,15.47393283000838,16.61806350257973,0.798367761915262,0.1766108459107426,-0.0161775447444099,-0.1473768519649515,0.9730503376792154,-0.2969304638756417,FLD01
1.158815860748291,15.474601128281847,16.624734287598926,0.798678464798788,0.1771015137182413,-0.0143278073792843,-0.1395332896442819,0.9741458971095934,-0.2806607365699633,FLD01
1.1708059310913086,15.475304185205005,16.631346324032222,0.798962912747326,0.1774837605918247,-0.0125884496222524,-0.1315497526729793,0.9752105968630416,-0.2641718505619537,FLD01
1.1768159866333008,15.476048665695089,16.637892173056628,0.799261860578588,0.1777021996671837,-0.0107504343358396,-0.123402551190019,0.9762572236633282,-0.2473443908964746,FLD01
1.1888258457183838,15.476862422969589,16.644367105170204,0.799608812190276,0.1776445795116607,-0.0088121531193837,-0.1152027134127395,0.9772886391183866,-0.2304006936972652,FLD01
1.2007861137390137,15.477743758790439,16.65077357180553,0.799997622754686,0.1773823698608901,-0.0070663792947296,-0.1070764884470502,0.9782740857081138,-0.2136917516093462,FLD01
1.20676589012146,15.478668045525865,16.65710808035243,0.800412183079496,0.1770974696226612,-0.0054769270412624,-0.0988820750457889,0.9791980518557388,-0.1969181064577096,FLD01
1.2186758518218994,15.479632207824125,16.66336896046664,0.800842646078369,0.1767392492700965,-0.0040092898766451,-0.0906000454147437,0.9800708112850692,-0.1800293120059487,FLD01
1.2306959629058838,15.480642699277269,16.66955376966564,0.801290951787278,0.1762870040998288,-0.0027085192103179,-0.0823162997250887,0.980887140760222,-0.1632102515983363,FLD01
1.236706018447876,15.481700172710134,16.675654021993125,0.801759093050412,0.1758092995489102,-0.0015833102245784,-0.0740627281286485,0.9816329739892584,-0.1465236803469247,FLD01
1.248945951461792,15.482808839546124,16.681655668024746,0.802244501185188,0.1753617657795712,-0.000611878180344,-0.0657935668840671,0.9823029488220194,-0.1298687643228655,FLD01
1.2607860565185547,15.483969634408368,16.68754969927255,0.802748521564931,0.1750293247449033,0.0002114947922816,-0.0574620591112741,0.9828849385925028,-0.1131482237297661,FLD01
1.2668259143829346,15.485183757110917,16.693341839957952,0.80327038955898,0.1748324291465999,0.0008614891929461,-0.0491051297693064,0.9833725467926228,-0.0964426117317889,FLD01
1.2846260070800781,15.486461069892812,16.69903725002405,0.803807919387696,0.1747454270474294,0.0013657348482717,-0.0407951710736918,0.983767210528692,-0.0798849871663374,FLD01
1.2908658981323242,15.487815665846938,16.70463375868843,0.804353852515644,0.1747658479817162,0.001806162109788,-0.0325730893992393,0.9840694233663873,-0.0635268573336378,FLD01
1.2968559265136719,15.489254813743628,16.71013093453263,0.804894093823338,0.1749134871719448,0.002228094169346,-0.0244677220038356,0.9842772161244338,-0.0474083231369441,FLD01
1.3087658882141113,15.490781221783891,16.715533966206067,0.805413621453489,0.1751873572145921,0.0026863016848649,-0.016442863179373,0.9843941313853356,-0.0314384014732077,FLD01
1.3207659721374512,15.492400814492612,16.720858949525223,0.805897429823284,0.1755415620402997,0.0031314062864928,-0.0085843977663885,0.9844296127230778,-0.0158034103948606,FLD01
1.3267760276794434,15.494126653131389,16.726123953961803,0.806330103489584,0.1759099708516983,0.0035159432594077,-0.0010009848659905,0.9843994709096756,-0.0007337784728673,FLD01
1.3387360572814941,15.495974267405472,16.731331048075447,0.806702222279348,0.1762170338084549,0.0038521492604595,0.0063179068495478,0.9843235250642268,0.0137959928825955,FLD01
1.3507859706878662,15.49795061721943,16.7364764620919,0.807010552174153,0.1764484412061461,0.004168136039028,0.0134379045382498,0.9842093257836476,0.0279261411685796,FLD01
1.356745958328247,15.500055899477502,16.741564424643173,0.807253636004892,0.1765993320478744,0.0044712967923969,0.0204598911861454,0.9840599962796424,0.041859051786133,FLD01
1.368746042251587,15.502293879146691,16.746605216027206,0.807433341517054,0.1766113781553614,0.0046938020180815,0.0273865987225005,0.983888389777566,0.0555772831182956,FLD01
1.380836009979248,15.504671804138525,16.751609703711154,0.807550910119665,0.1764248629234679,0.0048377742844808,0.034214044592276,0.983707407126248,0.0690753687213023,FLD01
1.3868060111999512,15.507192784120889,16.75658221099303,0.807606475549072,0.1760315734512372,0.0049417710099699,0.0409701590973299,0.9835191457776032,0.0824238933622026,FLD01
1.398805856704712,15.509852464141204,16.761526581733847,0.807600996871347,0.1754671547693844,0.0050298106677774,0.0476742659417718,0.9833174171999072,0.0956711179618849,FLD01
1.4108359813690186,15.512638197293654,16.766450655416804,0.807533683313564,0.174777050050025,0.0051162987742255,0.0543368897247687,0.9830942521842462,0.1088441126847279,FLD01
1.416815996170044,15.51554011421922,16.77136603969376,0.80740169649779,0.1739938018962691,0.0051713105893361,0.0609448319765731,0.9828454313389352,0.1219073945144731,FLD01
1.428786039352417,15.51855783814517,16.776280548091336,0.807204749378613,0.1731157910634174,0.0051765699672494,0.0674555973115726,0.9825751209954384,0.1347719684446979,FLD01
1.4406659603118896,15.52169166630074,16.781194232162022,0.806944636657639,0.1721603523062222,0.005168273994628,0.0738791787754344,0.9822810030643884,0.1474708798517656,FLD01
1.4467658996582031,15.524938965662841,16.786105331950637,0.806624349412398,0.1711819684969571,0.005166906532826,0.0802356815668668,0.9819532942772218,0.1600506997752936,FLD01
1.458765983581543,15.528294221084252,16.791014271166375,0.806248384302883,0.1702253140188282,0.0051750331918411,0.0865376763641168,0.9815843275379624,0.1725366469374183,FLD01
1.4706459045410156,15.531753292653775,16.79592543882984,0.805818213786805,0.1693079116954365,0.0052099449466921,0.0927741204029436,0.9811730989455646,0.1849123710756807,FLD01
1.4767858982086182,15.535319561176493,16.800848737571584,0.805330621933103,0.1684147629097137,0.0052357447341244,0.0989093842158755,0.9807272752020209,0.1970954291999304,FLD01
1.4888160228729248,15.538996954658614,16.805791419156435,0.804776854018621,0.1675233069032008,0.0052496890206377,0.1049194586248925,0.9802552165692678,0.2090377808001291,FLD01
1.500756025314331,15.542781906510754,16.81075697829891,0.804147269384595,0.1666856413774028,0.0052586264286153,0.1107981316187833,0.9797509978747024,0.2207278739349465,FLD01
1.5067861080169678,15.546670458840708,16.815747348194634,0.803431707352693,0.1659248622912297,0.0052548309665033,0.1165738494674217,0.9792098163547468,0.2322185803019032,FLD01
1.524735927581787,15.550662842873862,16.82076377753191,0.802622880231494,0.1652419145227109,0.005241647249091,0.1223038698371587,0.978626281193102,0.2436244048624189,FLD01
1.530735969543457,15.55476704357443,16.825812584218113,0.801713285288235,0.164590615423491,0.0051888845630053,0.1280069174667429,0.978006765759916,0.2549741750690757,FLD01
1.5367059707641602,15.558993315803946,16.830902536279552,0.800701683948264,0.1639569406807735,0.0050659222851165,0.1336907127037893,0.9773531866069478,0.2662742725516397,FLD01
1.5488059520721436,15.56334450186614,16.836035926106035,0.799597310796537,0.1633723950804642,0.0048604461372247,0.1393361664468715,0.9766633346803336,0.2774822437755719,FLD01
1.5608758926391602,15.567818607347817,16.841212391280862,0.798414346688775,0.1628338953447236,0.0045588186517987,0.1449343526853523,0.975939738462904,0.2885765033590311,FLD01
1.5668158531188965,15.57242186711619,16.846424072172113,0.797171342036556,0.1623032454942336,0.0042202092565878,0.150520433113331,0.9751838009069084,0.2996479014646614,FLD01
1.578805923461914,15.577167415448912,16.85166858474207,0.795883727267497,0.1617066420858714,0.0038607924691139,0.1560990364731997,0.9744070745838008,0.3107144044141325,FLD01
1.5907158851623535,15.582063647037558,16.856949871667837,0.794562220730486,0.1610487854123384,0.0034875060223253,0.1616129606054011,0.9736181885027168,0.3216643517776515,FLD01
1.596735954284668,15.58711155030278,16.862263183989114,0.79321806030708,0.1603925740546441,0.0031563046386019,0.1669832162181515,0.9728210860330876,0.3323540886574582,FLD01
1.60874605178833,15.592308169865191,16.867602472501233,0.791862632954552,0.1597667615881227,0.0029044480161681,0.1721715388212241,0.9720201167122504,0.3427158360521789,FLD01
1.620755910873413,15.597654530958152,16.872959611294164,0.7905062567031,0.1591667423298319,0.0028284659562481,0.1771778614617238,0.9712187978639486,0.3527772204297539,FLD01
1.6269559860229492,15.603154680782154,16.87833410265381,0.789157395611668,0.1585963044844664,0.0029512826041652,0.1820010148548926,0.9704195653049508,0.3625404091101185,FLD01
1.638685941696167,15.608808282346217,16.88373739059915,0.787821284083757,0.1580807038779108,0.0032458327860986,0.1865715787373544,0.9696344680540396,0.3718540920925739,FLD01
1.6507959365844727,15.614609758146344,16.88916966679085,0.786524131835821,0.1577267766020407,0.0037503096469938,0.1905868887385641,0.9689090963352732,0.3801119012648034,FLD01
1.6567161083221436,15.620524688435125,16.89463143601546,0.785285897655888,0.1574730325119986,0.0044251676334224,0.1945536669047293,0.9681588364606372,0.3883239187582313,FLD01
1.6688261032104492,15.62658089154047,16.900123743666825,0.784094412318905,0.1573435587445072,0.0053601170479785,0.198285040194286,0.9674178603385386,0.3961380012277383,FLD01
1.680755853652954,15.632789916881848,16.905648562445435,0.782959270436288,0.1572791974726833,0.0065742937403926,0.2018944091240675,0.9666740299959482,0.4037911447542156,FLD01
1.6867361068725586,15.639159637734338,16.911219921378006,0.781898376626378,0.1572357053872545,0.0079830290693212,0.205378644504598,0.9659362383613656,0.4112541230828089,FLD01
1.6987760066986084,15.645691579423783,16.9168510674902,0.780938711719109,0.157171116734981,0.009507445532813,0.2086689643652664,0.9652274922806782,0.418366304740795,FLD01
1.7108259201049805,15.652383913891754,16.922545093751125,0.780110287782632,0.157065398933776,0.0111635980910247,0.2117980270015348,0.9645451934946818,0.4251991166146972,FLD01
1.7167859077453613,15.65923462617775,16.928301388773093,0.779440363864402,0.1568599575697089,0.0129222613433592,0.2148202485319627,0.963888079443702,0.4318560695882156,FLD01
1.7288260459899902,15.666239569184654,16.9341237571727,0.778952953557452,0.1564610822169411,0.0147613832951978,0.217783770900493,0.9632612628187004,0.438430978033141,FLD01
1.7407159805297852,15.673384214939688,16.940023172636245,0.778671383093892,0.155837283189394,0.0165852859791566,0.2206434497811784,0.9626817425950276,0.44480302238005,FLD01
1.7467260360717773,15.680645205495694,16.94600079249642,0.778615874095858,0.1550262401994507,0.0183196047096342,0.2232785576756326,0.9621735511929196,0.450701353498502,FLD01
1.7586660385131836,15.688001109657762,16.952038805784525,0.778801179911192,0.1540687360738685,0.0199454014803348,0.2256922926361526,0.9617317685139792,0.4561232236493751,FLD01
1.7706658840179443,15.695443392272864,16.958101469519875,0.779240888298975,0.1529565963553301,0.0215240524743619,0.228065395129657,0.9613153334576676,0.4614528035380791,FLD01
1.776766061782837,15.702968898337986,16.964153635575656,0.779947216756035,0.1516891692429911,0.0231168740769397,0.2306005585087204,0.960874283391302,0.4671195361604751,FLD01
1.7887859344482422,15.710561215516918,16.97017642576634,0.780930823262173,0.1503157828227305,0.024701471011597,0.2333017060223209,0.9603985197465308,0.4731231734319984,FLD01
1.8008160591125488,15.718190464235704,16.97615991467353,0.782197004208902,0.1489075832289011,0.0262333383093882,0.2360447085956462,0.9599068908816466,0.4791963473364891,FLD01
1.8067359924316406,15.725825195350808,16.982088481688436,0.783739043946793,0.147533408293586,0.0277312347048069,0.2387471071986768,0.9594085109395728,0.4851757711290563,FLD01
1.8187661170959473,15.733435541744711,16.987941905086927,0.785531069450224,0.146239271470789,0.0292495436114916,0.2414426924060592,0.9588868368905296,0.4911463518766847,FLD01
1.8307859897613525,15.740983971083097,16.993708373838217,0.787522984550652,0.1450848352307363,0.030811743649979,0.2441518827153524,0.9583271284931189,0.497156875257113,FLD01
1.8367259502410889,15.748422951662178,16.999389117885755,0.789649843494994,0.1441648365170485,0.0323278354847104,0.2467374165533239,0.9577536521660868,0.5029004160071462,FLD01
1.8488059043884277,15.755707297011213,17.004983198250955,0.791848946541429,0.1435738739507545,0.0337522530754277,0.2490734449331997,0.9571884595836984,0.5081066256312013,FLD01
1.8607559204101562,15.762808747384042,17.010472822077134,0.794065099165095,0.1433145556147352,0.0351646874404787,0.2511805693910181,0.9566256867064404,0.5128427329003071,FLD01
1.8667359352111816,15.769711802678557,17.015837383246435,0.796251165608359,0.1433457251506173,0.0366937924825651,0.2532042742135283,0.9560298971236676,0.5174469906111998,FLD01
1.8787660598754883,15.776407402495806,17.021072854556735,0.798370722552687,0.1436100099876195,0.0383545695139442,0.2552673931992933,0.9553761824527516,0.5221778935213839,FLD01
1.8907361030578613,15.782887006508645,17.02619556622301,0.80040289307643,0.1440530838023372,0.0400379831559412,0.2573837167104474,0.954672347627267,0.5270325076298835,FLD01
1.8967061042785645,15.789144583190136,17.03122623068549,0.802346119050108,0.144682323173903,0.0415753019627176,0.2593962899758384,0.953966500656329,0.5316378029902331,FLD01
1.9086859226226807,15.795192593505817,17.036174546184554,0.804209990568538,0.1454490271531259,0.0429250830023519,0.2613049617045396,0.9532689729231932,0.5359793659732778,FLD01
1.9207661151885986,15.801062068455849,17.04103496821773,0.806009729535351,0.1462491858785982,0.044140665861654,0.263282169484446,0.952546731913296,0.5404257533525182,FLD01
1.9266860485076904,15.806788955407228,17.045805212742778,0.807757186536934,0.1470187418391699,0.0453038315404627,0.2655480233177535,0.9517443457713918,0.5454536113085207,FLD01
1.9386959075927734,15.812400892064034,17.050504535095513,0.809458642968367,0.1477034570056625,0.0462852688461478,0.2680710815287946,0.9508834092171334,0.5509561161816029,FLD01
1.9508459568023682,15.81791438291566,17.055162017430632,0.811121910160737,0.148352586635765,0.0469454089305362,0.2706591010455226,0.9500164680888706,0.556492317350337,FLD01
1.9567959308624268,15.823356103889637,17.05979092929192,0.812749176919659,0.1489724103700445,0.0472818568014117,0.2732117731998418,0.949171730484504,0.56185360799607,FLD01
1.9687860012054443,15.828767910606075,17.064390802204457,0.814347482665175,0.1495474505529132,0.0473860279934502,0.2758138812511751,0.9483231660638112,0.5672430689185931,FLD01
1.9808158874511719,15.834191215275041,17.068962273423267,0.815920243384508,0.1500270640792673,0.047350650004342,0.2785603735575537,0.9474459954379446,0.5728863287816276,FLD01
1.9927358627319336,15.839651134529959,17.07352057824386,0.817467091617786,0.1503876977550949,0.0471243167610972,0.2813713890832623,0.9465690574591362,0.578602541029956,FLD01
1.9988059997558594,15.84516473724716,17.07808292633524,0.81898309589417,0.1506658921543169,0.0466080697727042,0.2840720078448182,0.9457433960289756,0.5839992258427575,FLD01
2.0107860565185547,15.850753315693964,17.08264820565239,0.82045370266607,0.150863641504877,0.0458774303080922,0.2866017805060079,0.9449840435007356,0.5889770318339973,FLD01
2.0167758464813232,15.856433955048033,17.087201112623745,0.82186409189419,0.1509959844881355,0.045066113263254,0.2890022378287805,0.944270599263664,0.5936660536952951,FLD01
2.028765916824341,15.862215214238404,17.09172758172656,0.823195345947612,0.1510592272499621,0.0442773231896604,0.2912986439910307,0.9435919290258842,0.598152452652271,FLD01
2.0406858921051025,15.868095309397631,17.096226356456327,0.824432707341929,0.1510696100786472,0.0435362950408255,0.2934265228858048,0.942965237743126,0.6023108543894344,FLD01
2.046705961227417,15.874063041761474,17.100704513498727,0.825565095723694,0.1510544686544639,0.0427945935803554,0.2951870430339464,0.9424520040217882,0.6057131636795238,FLD01
2.0586559772491455,15.880109577065014,17.105163276287556,0.826582862539412,0.1510310200891405,0.0420511644797888,0.2964205734942169,0.942101997740206,0.6080270458715741,FLD01
2.07071590423584,15.8862334088235,17.10959173502357,0.827474431460795,0.1509745275931357,0.0414140475859962,0.29715682607557,0.9419073146532349,0.6093475382555019,FLD01
2.076756000518799,15.892428399591154,17.113983928287496,0.828230072715931,0.1508753366949169,0.0409466792127909,0.2974623633410287,0.9418471981347132,0.6098317491264146,FLD01
2.0887858867645264,15.898685487956755,17.118351992881117,0.828845367188154,0.1506996908007273,0.0406009061412197,0.2973483204048142,0.9419262953997584,0.6094869588828652,FLD01
2.100735902786255,15.90499748505772,17.122709357566634,0.829321523454779,0.1504523816340494,0.0402902110806069,0.2967123816848511,0.9421796762330557,0.6080733971197844,FLD01
2.1067659854888916,15.911366039723816,17.127065407113832,0.829660210353586,0.1501013393266618,0.0400186069307013,0.2956173468864808,0.9425913659966688,0.6057232356679144,FLD01
2.1187660694122314,15.917797060563771,17.131414345459348,0.829863791554872,0.1496697068804877,0.039817687690697,0.2941671569456345,0.9431220569808542,0.602662108786762,FLD01
2.1307759284973145,15.924294490100237,17.13576029727767,0.829934484333579,0.1491477898928958,0.0397309669298884,0.292591733796667,0.9436982909546572,0.5993801989145531,FLD01
2.136806011199951,15.930856581944226,17.140119897868146,0.829877808460521,0.1485640714324526,0.0396944930428148,0.2909680550893282,0.9442937333367308,0.5960161860296553,FLD01
2.1487460136413574,15.9374771072371,17.144515171479952,0.829697319256441,0.1479290269878746,0.039585375453464,0.2892071453241169,0.9449387430506296,0.5923473563752909,FLD01
2.1608059406280518,15.944155073884758,17.148960442000657,0.829398162807924,0.1472650176218964,0.0393604420467856,0.2872822725989478,0.945638760858018,0.5883053204972737,FLD01
2.1667659282684326,15.950896937506513,17.153459740577034,0.828983397358257,0.1465816438661204,0.0390658247620506,0.2852767719050525,0.9463640137011756,0.5840773292102335,FLD01
2.1788558959960938,15.957706938468164,17.158018552925057,0.828456602659353,0.145887449214243,0.0387538322500197,0.2833202555271266,0.9470716052420444,0.5799475105141523,FLD01
2.1908159255981445,15.964585210137102,17.16264835455746,0.827819549556331,0.1451772491318673,0.0384032010877911,0.2814174838080941,0.9477620800010071,0.5759190636668148,FLD01
2.196725845336914,15.971530576358873,17.167366666199143,0.827075218657503,0.1444597423821693,0.0379469678581364,0.2794532286190279,0.9484710346002412,0.5717338274771351,FLD01
2.2088561058044434,15.978547412090848,17.17218164319064,0.826227127133752,0.1437822406774536,0.0373794964248153,0.2773593302334404,0.9492108524691736,0.5672499928441653,FLD01
2.2207560539245605,15.985641847388251,17.177086046836394,0.825281290383237,0.1431757891881549,0.0367650978185759,0.2751869551676016,0.949958504713929,0.5625931649360372,FLD01
2.232775926589966,15.992812738439625,17.18207110925482,0.82424890396247,0.1426994953200076,0.0361458817486269,0.2729994419654944,0.9506848236690002,0.5579063662452192,FLD01
2.2386159896850586,16.000059242910993,17.187132901327004,0.823141336160677,0.1423819244496628,0.0355474584989655,0.2708196029632317,0.95137821524098,0.553243915208111,FLD01
2.250715970993042,16.007379447434687,17.192270687999496,0.821970148245518,0.1422515757583941,0.0349190826558785,0.268543686893636,0.9520658774949864,0.5483768369754556,FLD01
2.2567861080169678,16.01476682943803,17.19748368760628,0.820747578733302,0.1423447599062728,0.0342248235841071,0.2661278119449582,0.9527552773337188,0.5432041305219985,FLD01
2.26887583732605,16.022213198808913,17.20276097460811,0.819484223670935,0.1426701943690692,0.0334867087046269,0.2635906624607539,0.9534378944862244,0.537770907393589,FLD01
2.280855894088745,16.029703145229178,17.208090175373343,0.818184748470168,0.1432293280750256,0.0327223831206824,0.2609892186871386,0.9540960292083585,0.5321992991524909,FLD01
2.2868459224700928,16.037215600682885,17.21345900042502,0.816849774613883,0.1440249849728066,0.031947729531706,0.2583435360194709,0.9547223489990732,0.5265347250529829,FLD01
2.2988460063934326,16.04473702278483,17.218860182120352,0.815482077751558,0.1450154108033151,0.0311993508534758,0.2556748866999724,0.9553153842825016,0.5208316683400883,FLD01
2.3107759952545166,16.052259665394104,17.224291070598042,0.814091821106919,0.1461486258486286,0.0304642357612343,0.2529270809416153,0.9558976939131064,0.5149715091654941,FLD01
2.3167760372161865,16.059776090884043,17.229750005493713,0.812693757379043,0.1474185553530042,0.0297702429019542,0.2500557117113852,0.9564798185093633,0.5088719311131399,FLD01
2.3287458419799805,16.067280621099144,17.23523211571404,0.811304176467744,0.1488290168716662,0.0291479365138857,0.2470681572787924,0.9570567627851848,0.5025576275462953,FLD01
2.3406460285186768,16.074768298926756,17.240739586168615,0.80995046561532,0.1504113487814858,0.0285774643693406,0.2439925139538008,0.9576154801497612,0.4960799485276929,FLD01
2.34665584564209,16.082245696359223,17.24628075503267,0.808673003183013,0.1521505984523131,0.0280029115510759,0.2408048186314057,0.958164428299841,0.4893734558658462,FLD01
2.358786106109619,16.08973763555923,17.251869857433633,0.807525651394022,0.1540408926406201,0.0273625594044139,0.2374666264842606,0.9587138754829332,0.4823409640311367,FLD01
2.370666027069092,16.097281370397468,17.257520158562727,0.806576127877837,0.1560909713401581,0.0265796995493925,0.2340234664940569,0.9592508250546646,0.4750506184963519,FLD01
2.376646041870117,16.10490825982788,17.263222519580324,0.805888732237858,0.1583387804342818,0.0256489024073186,0.230623966281777,0.9597309782393948,0.4678004076692705,FLD01
2.388795852661133,16.11264573005974,17.268954762659178,0.80551512993279,0.1607701439033771,0.0245850077232666,0.2275154532853504,0.960096483037458,0.4610943622891793,FLD01
2.400765895843506,16.120518562946017,17.274690721419006,0.80549300415463,0.1632884834582312,0.023421233057295,0.224844560306769,0.9603297562360766,0.4552385572274152,FLD01
2.406775951385498,16.128537713553214,17.280417063706636,0.805848883892702,0.1657865192813214,0.0221471245180593,0.2226372461840482,0.9604462460292866,0.4502810079621597,FLD01
2.4187660217285156,16.1366946849912,17.286124110939454,0.806596378198649,0.168225200445506,0.0207303581209392,0.2207418756251709,0.9604913110136544,0.4459021316688667,FLD01
2.430755853652954,16.14497256032564,17.29179716067415,0.807740693198435,0.1705513806378389,0.0192427491509606,0.2190348664900152,0.9605028216665172,0.4418756907541544,FLD01
2.436795949935913,16.1533469211563,17.297421572800545,0.80928778899272,0.172688070005161,0.0177438064248961,0.217378055852643,0.9605262977374298,0.4379450940676372,FLD01
2.448685884475708,16.1617952346769,17.30298533902163,0.811234611492696,0.174513327394488,0.016272706877791,0.215633604365362,0.9606156600019472,0.4338516552691095,FLD01
2.4607160091400146,16.17029444867603,17.308471878224395,0.813550481208857,0.1759616129483203,0.0148474948926749,0.2136925011317796,0.9608082938984664,0.4293874163707794,FLD01
2.4726459980010986,16.178806242058727,17.313858118300004,0.816166637684962,0.1770634505087303,0.0135061100682846,0.211519824928312,0.9611063849267998,0.4244971101400088,FLD01
2.4787559509277344,16.18728889447584,17.319111982726042,0.81899541506736,0.1778660730892695,0.012268916204879,0.2091441998029834,0.9614945852305826,0.4192463663822089,FLD01
2.490705966949463,16.195702761111534,17.324194418507034,0.821940974991015,0.1784165277922396,0.0112163567777713,0.2066859798459854,0.9619369218853696,0.4139052700154651,FLD01
2.496755838394165,16.204013834405487,17.329071948028627,0.824911759190378,0.1787757397962485,0.0104216540741086,0.2042640348477958,0.9623963986083708,0.4087365929026754,FLD01
2.508755922317505,16.212199302589852,17.333728501587984,0.827825284544734,0.1789853281699574,0.0099147650376934,0.2019307401736284,0.9628550908143294,0.4038544278317562,FLD01
2.5207560062408447,16.220245677655384,17.33816435569628,0.830619531605851,0.1791173042649992,0.0096455764290516,0.1996938178394626,0.9632997110374788,0.3992536310323403,FLD01
2.526815891265869,16.228138842391218,17.342390383444524,0.833260439127599,0.1793035430786812,0.0094974892360022,0.1974728119718535,0.9637242996155968,0.3947257894837784,FLD01
2.5387959480285645,16.23587156888061,17.346419468140482,0.835733408307051,0.1796225481628428,0.0093839838824559,0.1952377527209726,0.964121310287479,0.3901772557844829,FLD01
2.5506858825683594,16.243455619865017,17.350255809579494,0.838044383757222,0.1800421828917363,0.0092930745642699,0.1930671337191337,0.9644809656090676,0.3857634424624935,FLD01
2.5567660331726074,16.250919001646253,17.35390622017269,0.840208703638971,0.1804952142409239,0.0092336940530223,0.1910429769884786,0.964799874312615,0.3816553853231642,FLD01
2.568675994873047,16.25829508975221,17.35739030412668,0.842246696107054,0.180999755829564,0.0091674437584348,0.18917734112058,0.965073561948063,0.3778627439794665,FLD01
2.5807759761810303,16.26560852472403,17.360729649600955,0.844182520225126,0.181626122389095,0.0090308096162124,0.1873928802538922,0.9653052908659144,0.3742043462998246,FLD01
2.586695909500122,16.272881936688464,17.363942771926816,0.846036826767026,0.1824022914969205,0.0087982559021938,0.1856559113035868,0.9654966998119604,0.3706018431020595,FLD01
2.598736047744751,16.280150937631333,17.36704490884722,0.847826863145143,0.1832329041180452,0.0084862759323539,0.1839705408620772,0.9656648104100004,0.3670733087121857,FLD01
2.610785961151123,16.287448654374657,17.370055538930842,0.849566512579184,0.1840518704024092,0.0081452891888153,0.1823225134085459,0.9658245515463956,0.3636107075124962,FLD01
2.6168558597564697,16.294799288602007,17.373002501871895,0.851253658123409,0.1848071563981265,0.0077180277515709,0.1805643963716041,0.9660141022545284,0.3599009361794472,FLD01
2.6288061141967773,16.302220655082692,17.375906046494663,0.852877254488677,0.1854657619202221,0.0071837368023971,0.17854788345222,0.9662667842762876,0.3556415332003789,FLD01
2.6407759189605713,16.30972568462812,17.37876693610383,0.854423578185329,0.1860004561968723,0.0066493403913134,0.1762390144513664,0.9665916543981368,0.3508046339302668,FLD01
2.646615982055664,16.31734715450193,17.38158100645944,0.855888172758993,0.1862490804203907,0.0061820157986035,0.1737566096701911,0.9669962271483512,0.3456611604545802,FLD01
2.658766031265259,16.3251237287991,17.38435477610136,0.85730279257713,0.1863376242701277,0.0058991272419416,0.1709140132125355,0.9674874108569752,0.3398743976466563,FLD01
2.670745849609375,16.33301876052019,17.387073336197204,0.858587437957848,0.1861165122911525,0.0058070050246094,0.1678751368931568,0.9680624261680262,0.3337826498626437,FLD01
2.6767759323120117,16.341021274739887,17.389736085137258,0.859716818331489,0.1856534689852672,0.0058471589319871,0.1646193789482748,0.9687099980184188,0.3273203694530852,FLD01
2.6887660026550293,16.349113017358377,17.39234115663038,0.860669386299698,0.185000434544992,0.0059860606828918,0.1611701801416629,0.969413832854044,0.3205194739394356,FLD01
2.700795888900757,16.357281184556996,17.3948814817104,0.861428034290469,0.1841785625278954,0.0062269919163138,0.1576317166579877,0.9701503613256496,0.3135873075966911,FLD01
2.7187459468841553,16.36552139991545,17.39735328256876,0.861980422543263,0.1831897338826143,0.006529620510641,0.1541244303801049,0.970898833770034,0.3067483942513817,FLD01
2.7307958602905273,16.373827669047387,17.39975640889685,0.86232026171486,0.182061840758428,0.0068453210459581,0.1506865158120682,0.97164818822033,0.300058981300953,FLD01
2.7367260456085205,16.38219151107569,17.40209390924332,0.862451165683255,0.1808624028486432,0.0071044576019386,0.1473311151708576,0.9723846257631332,0.293516808368282,FLD01
2.7486259937286377,16.39060525662171,17.404366525467765,0.862389226291431,0.1796201624236411,0.0072428395311695,0.1440528156392761,0.9731047861524612,0.287087040063628,FLD01
2.760685920715332,16.399072295984297,17.406572230904885,0.862156529644649,0.1783109898464842,0.0072761153210512,0.1409556148415512,0.9737986258413196,0.2809830798759028,FLD01
2.7667858600616455,16.407605352267637,17.408704640383917,0.86177591352844,0.1769330211698718,0.0072269561931746,0.138119983075079,0.974456436891472,0.2753728923902721,FLD01
2.7787559032440186,16.41621274525596,17.41076401609604,0.861268430640039,0.1754907749331886,0.0070988551178823,0.1355583403947421,0.975077704861919,0.2702821658957858,FLD01
2.7907159328460693,16.42489448692595,17.41275836816112,0.860653184503704,0.1740568299985603,0.0068365902602195,0.1332229131330534,0.975658309235774,0.2655948128597227,FLD01
2.7967560291290283,16.433653389579376,17.414687531395032,0.859941734914998,0.1726504079528688,0.0064291069716729,0.1310532992427253,0.9762046588573788,0.2611872948875467,FLD01
2.808745861053467,16.44249483503563,17.416541507435227,0.859142676265468,0.1712697402373308,0.0059629440879015,0.1290850981766111,0.9767129346975888,0.2571606895004279,FLD01
2.820755958557129,16.451427069676356,17.418310223588833,0.858258953089788,0.1699291116393005,0.0054912722582355,0.1273543887246016,0.9771769556324214,0.2536044627335802,FLD01
2.8267459869384766,16.460455103900586,17.419986215513745,0.857288911405282,0.1686538968513156,0.0050479683446004,0.1258158523137561,0.9775994846556644,0.2504389287549222,FLD01
2.838736057281494,16.469572937988232,17.421566379903823,0.856235543457745,0.1675110559477514,0.0046467123008049,0.1243765713761821,0.977982066651924,0.2474814347696019,FLD01
2.850705862045288,16.47877629530194,17.42304470569445,0.855106259030735,0.1665524729527425,0.0042910699798603,0.1229609848204058,0.978326354895824,0.2445809162320145,FLD01
2.856705904006958,16.48806973686669,17.42441043568516,0.853913546442735,0.1657519238874502,0.0040423755668382,0.1215968160903461,0.9786338300120614,0.2418130140338368,FLD01
2.86871600151062,16.497459450331917,17.425659363260024,0.852675727117795,0.1651106603335407,0.0039089352675687,0.1202933551105182,0.9789038250949637,0.2391984107464225,FLD01
2.8807759284973145,16.50695163003911,17.42679296817255,0.851405116493103,0.1646486746708149,0.003901514642276,0.1190231233975255,0.9791369098391388,0.2366850438864489,FLD01
2.886725902557373,16.516542653715987,17.427811380835124,0.850113346394795,0.1644091967675891,0.0040239702559868,0.1177008399758351,0.9793364773920136,0.2341032697276695,FLD01
2.8987059593200684,16.526222179696106,17.428716416270163,0.848809968380858,0.1644232373382106,0.0042632328846426,0.1162867569098847,0.979502023497642,0.2313693768669746,FLD01
2.9107160568237305,16.5359823049439,17.42950464958335,0.847495241088812,0.1646597726016304,0.0046295762030826,0.1147899655144622,0.9796371726961712,0.2285065668426699,FLD01
2.9167261123657227,16.545812657004262,17.430175294380433,0.846164145975006,0.1650778883730023,0.0051538723926494,0.1132635097864642,0.9797418566747684,0.2256325688351307,FLD01
2.9287760257720947,16.555699320666008,17.430729438055096,0.84480701750944,0.165661012866192,0.005814123199075,0.1116981067085894,0.9798194516059016,0.2227236118798904,FLD01
2.940765857696533,16.565627381651666,17.43115870938783,0.84341259073009,0.1664272510791144,0.0066007986494892,0.1100795862178797,0.979867789170324,0.2197495880794479,FLD01
2.9466159343719482,16.575586889385704,17.43145109523317,0.841978940415066,0.1673549218125919,0.0075121497925709,0.1084432781947726,0.9798856837228344,0.2167824370347754,FLD01
2.952686071395874,16.585579844082986,17.43159879015127,0.840520030198828,0.1684295198825306,0.0085022181034115,0.1068463350274637,0.9798689044003088,0.2139224023524823,FLD01
2.958735942840576,16.595619746592092,17.431597943895156,0.839059102993863,0.1695995747355521,0.0095483944022002,0.1053646478717755,0.9798178929743612,0.2113147167686448,FLD01
2.9707159996032715,16.605718707651704,17.431450836189583,0.837633998139193,0.1708295730869349,0.0106326642064766,0.1039725530519454,0.9797417576191536,0.2089037664585487,FLD01
2.9767661094665527,16.615884130216727,17.43116186718555,0.836292786423303,0.172123496114137,0.0117718330108734,0.1025334098634278,0.9796539316997552,0.2064251574259784,FLD01
2.988785982131958,16.626124492038343,17.430735015589107,0.835095777011679,0.1734299861465264,0.0130237670445343,0.1009367120069336,0.9795734794115318,0.2036818099710108,FLD01
3.0006558895111084,16.63645394096784,17.430181258527455,0.8341162419537,0.1746825432760438,0.0144329020275957,0.0991052645924935,0.9795181708083452,0.2005386168430271,FLD01
3.006716012954712,16.646893015549267,17.429522507938714,0.833425216795909,0.1758951370487957,0.016032429278551,0.0969378418447034,0.9794931938469532,0.196808737912264,FLD01
3.0187158584594727,16.657459925966577,17.428784794215915,0.833088072814228,0.1770707273528961,0.0177777946402175,0.0942065794180368,0.9795177527369272,0.1920280844738081,FLD01
3.0308258533477783,16.6681627234625,17.42798683057123,0.83316822097159,0.1782119793673492,0.019636209102113,0.0907631886233681,0.979600404906505,0.1858943924297502,FLD01
3.036736011505127,16.678999244052648,17.427133416774154,0.83370438286742,0.1793017444491303,0.0216259665418398,0.0866124101486,0.9797354195990264,0.1784262239100427,FLD01
3.048635959625244,16.689952098082813,17.426232817827554,0.834698220883567,0.1802791136918883,0.0237082129886132,0.0818669908961435,0.9799158931280604,0.1698332424564246,FLD01
3.0607759952545166,16.700984847841028,17.42529728259524,0.836122073792255,0.1811281901277318,0.0258332707341976,0.0766943979738889,0.9801240687707086,0.1604273152860246,FLD01
3.0667760372161865,16.712053221497627,17.424337964912525,0.837920284545866,0.1818344767045157,0.0279369233471254,0.0712567006000793,0.9803459766914344,0.1505022182218798,FLD01
3.078766107559204,16.723111016315215,17.423363270883158,0.840031467025318,0.1824028548774049,0.0298909274533229,0.0656569586178836,0.9805737579466433,0.14021031759594,FLD01
3.090735912322998,16.734115137584922,17.422378239311115,0.842396060455766,0.1828516797031475,0.0315872120173226,0.0601059239988849,0.9807929389870986,0.1299232763181979,FLD01
3.096776008605957,16.74502665833643,17.421380223588642,0.844949092667103,0.1831791758630676,0.0329068222169147,0.0547804898633429,0.9810003203424776,0.119940911601658,FLD01
3.1088058948516846,16.755808724289636,17.420366665012864,0.84762235083926,0.1834241552668881,0.0338638640379563,0.0499303184756113,0.9811808096747364,0.1107586899096812,FLD01
3.12078595161438,16.766424711187028,17.419327452290304,0.850340985736116,0.1836111128435575,0.0345470589177677,0.0456771126003166,0.9813292318814216,0.1026486949279503,FLD01
3.1266961097717285,16.776836715924674,17.418249820368146,0.853035146171424,0.1837801412356758,0.0350304072095379,0.0420408351591322,0.981442967490853,0.0956789023610621,FLD01
3.138795852661133,16.787011767619333,17.41712240248836,0.855650823829093,0.1839898446901763,0.0353847695479835,0.0389464410950363,0.9815186344950114,0.0897308381018021,FLD01
3.1506459712982178,16.796930181704738,17.41594765700154,0.858153576452839,0.1842976651964905,0.0356736079313214,0.0363654254810692,0.98154944864223,0.0847754264720871,FLD01
3.156705856323242,16.806584917908822,17.41475092889101,0.860532822657495,0.1846800656726365,0.0358610441418147,0.0341731111097913,0.9815495185334704,0.0805523404976494,FLD01
3.1687960624694824,16.81597178614811,17.413569209699233,0.862797018618163,0.185134753252619,0.0358280201891329,0.032080769458869,0.9815356846994132,0.076447898126878,FLD01
3.1866559982299805,16.825098438675923,17.412419891590048,0.864957518089648,0.1856212432239619,0.0355550008426761,0.0298466537194439,0.9815242091975216,0.071976154041412,FLD01
3.1986260414123535,16.833986639425348,17.41128894214239,0.867030285568583,0.1861409528304272,0.0351237559000565,0.0274322133544474,0.981511763108996,0.0670920869380998,FLD01
3.2107059955596924,16.842663918879225,17.41015958464544,0.869026147141948,0.186685156828249,0.0345988816751763,0.0250288743047304,0.9814912760987116,0.0621962411807738,FLD01
3.21673583984375,16.851154988296457,17.40902395030065,0.870951430042399,0.1872285673751446,0.0339487527203288,0.0227532816052261,0.9814658597850352,0.0575043256844565,FLD01
3.228775978088379,16.859490786889637,17.407881792925934,0.872810092098972,0.1877619353610025,0.0331025038419189,0.0206902454727348,0.9814385327727684,0.0531552242822787,FLD01
3.2407660484313965,16.8677074213565,17.406718802252442,0.874599592920132,0.1882813958320568,0.0321078728446478,0.01891355829277,0.9814079059176312,0.0493115163668357,FLD01
3.2470860481262207,16.875840356977733,17.405516251504366,0.876318293586523,0.1888211673643579,0.031019820140783,0.0175796026611422,0.9813639972425476,0.0463030680776182,FLD01
3.2587058544158936,16.883919816635625,17.40427688108207,0.877969593064167,0.1894005325965671,0.0297563714907042,0.0167598790760691,0.981305815259035,0.0442392587948199,FLD01
3.2707560062408447,16.891967273669252,17.40301789922455,0.879557736406549,0.1898762725483998,0.0282498138292209,0.0163446812500919,0.9812654077957568,0.0428699835988852,FLD01
3.27673602104187,16.899995470581416,17.401756671636804,0.881086419212871,0.1902183501976064,0.0264197065531233,0.0161503815960345,0.9812533533843592,0.041802102026819,FLD01
3.28877592086792,16.908029593564606,17.40049622753986,0.882540817852112,0.190389344515559,0.0242446685917623,0.0159747917690788,0.981279215905313,0.0406294830517626,FLD01
3.3007960319519043,16.91608963635963,17.39921604272888,0.883901201620518,0.1904270439256331,0.0218295388821784,0.0157316828499041,0.9813325258691096,0.0392265916133148,FLD01
3.306786060333252,16.92417852156632,17.397892931075546,0.885147833769678,0.1904251190097106,0.0192562214930572,0.0154243790249768,0.9813916448165032,0.0376365104284523,FLD01
3.3187758922576904,16.93230142109587,17.39651479610012,0.886259234964085,0.1903687262108278,0.016558025717976,0.014909590938086,0.9814597719536184,0.0355909066829171,FLD01
3.330765962600708,16.940465389667224,17.395070287177646,0.887219768507855,0.1902595804327281,0.0138516104711516,0.0140778436519073,0.981535144179275,0.0329203927797985,FLD01
3.336655855178833,16.94867658248404,17.393543322626385,0.888016346403327,0.1900788593516943,0.0112763955076961,0.0128209312469396,0.9816203409943552,0.0294660373378819,FLD01
3.3486859798431396,16.95694073342611,17.391922026426244,0.888638586677548,0.1898182305255863,0.0089205049876386,0.0110288201864721,0.9817167764055962,0.0250457472860662,FLD01
3.3607161045074463,16.965257276062857,17.39020463234914,0.889081041069614,0.1894835837912075,0.0068335406695803,0.0086257261507195,0.98182221967316,0.019529794127277,FLD01
3.366786003112793,16.973621890985214,17.38840333902715,0.889348134703245,0.1890697172009493,0.0050063933041576,0.0055314750533835,0.9819353241672136,0.0127569443770324,FLD01
3.3788061141967773,16.98203182636871,17.386533857659742,0.88944810034533,0.1885109440709896,0.0034153371511052,0.0016698650251326,0.982063730614468,0.0045675848805604,FLD01
3.3907158374786377,16.990485194020494,17.384602246398345,0.889392670727347,0.1877611259059556,0.0020531369850325,-0.0029736678459086,0.982208074456014,-0.0050706114826116,FLD01
3.3967859745025635,16.99898426012487,17.382606605906744,0.889189129051826,0.1867871812181676,0.0009500629005675,-0.0082907489207817,0.9823649575363472,-0.0159350339660932,FLD01
