%time,x,y,z,q0,q1,q2,q3,yaw,floor
0.004059314727783203,43.07990514623771,12.163538495633588,1.32095285235614,0.1946025136148841,0.2883167955284461,0.3246667150317451,0.8795423874160202,0.8316046661187979,FLU01
0.010089635848999023,43.07883170892637,12.159679796907426,1.32381336868187,0.1936774610899089,0.2897062719239927,0.3250536307411543,0.8791470037574272,0.8336048063932411,FLU01
0.02205944061279297,43.07781559988143,12.155897279944156,1.32665155486556,0.1931173719270411,0.2906960960897072,0.3256468676092892,0.8787238348846893,0.835747036449749,FLU01
0.03398942947387695,43.076864846552326,12.152187737952488,1.32948880545643,0.1929016001306953,0.2912149660153184,0.3265176054832376,0.8782761920632979,0.8380996904664162,FLU01
0.04017949104309082,43.075988653141394,12.148554472815988,1.33237027118023,0.1928894899838664,0.2910634654244962,0.3278783616992094,0.8778220113885783,0.8408604508046862,FLU01
0.05215930938720703,43.07518357384879,12.14500941224577,1.33535349148163,0.1929917741238207,0.2900162858722817,0.329825309364217,0.877416659490909,0.8439684480799816,FLU01
0.06408929824829102,43.07444458480268,12.141574891903815,1.33846080787758,0.1932443900104359,0.2880075167835028,0.3322797302730027,0.8770966063412831,0.8472024605017283,FLU01
0.06991934776306152,43.0737755744517,12.138267477296665,1.34166379793594,0.1935833564340061,0.2850736058114629,0.3351260786700285,0.8768973912474851,0.8503477543158926,FLU01
0.08195948600769043,43.07317818426918,12.135066588977395,1.34490529803402,0.1938923679524526,0.281441460280119,0.3381611346543589,0.8768372147066189,0.8531915314778666,FLU01
0.09396934509277344,43.07264518243801,12.131948122356903,1.34812249719164,0.1942084408947076,0.2773752645941563,0.3412581375299512,0.8768631179643477,0.8557663409912107,FLU01
0.10012936592102051,43.0721625045544,12.128908664742312,1.35127334834437,0.1946813170335738,0.2730494015210418,0.3441914573614988,0.8769694691415669,0.857821507541723,FLU01
0.11207938194274902,43.07170604020757,12.125956067757897,1.35434855308773,0.1953632867465973,0.2685977448643861,0.3467851262392943,0.8771707438489553,0.8591338605126447,FLU01
0.12418937683105469,43.07125199825032,12.12310482639316,1.35735795136142,0.1963972709742371,0.2641200427170532,0.3488620156996485,0.8774759307188955,0.859459937113491,FLU01
0.13014936447143555,43.070779155134915,12.120362115466207,1.36031885865005,0.1978911312981926,0.2596613884579895,0.3503835806104416,0.8778646877145684,0.8587830682041762,FLU01
0.1420893669128418,43.07027408895601,12.117715676707917,1.36325259991202,0.1999360585257926,0.2552544163451179,0.3514860304969512,0.8782529964668382,0.8574390477624552,FLU01
0.1541593074798584,43.069739815294724,12.11513376403218,1.36617636074845,0.2025268613653146,0.2509576792960588,0.3523650990605905,0.8785453605772848,0.8558865625989526,FLU01
0.1660294532775879,43.06918690051407,12.112573488597604,1.36911247872747,0.2054760135687654,0.2467289957553725,0.353239877717547,0.8787070042349306,0.8544947544309165,FLU01
0.17210936546325684,43.06862432980097,12.10999465874795,1.37208446451404,0.2084744883651597,0.2425034964866034,0.3543142705125426,0.8787444677514742,0.8535579283094847,FLU01
0.1839594841003418,43.06806152400259,12.107367439558232,1.37510556031398,0.2112602401658774,0.2382025951864995,0.355693593344185,0.8786982998876087,0.8531690100828211,FLU01
0.18998932838439941,43.06749666932046,12.104670468506185,1.37818643690762,0.2135629263721483,0.2338046048217911,0.3575086691352147,0.8785862705145454,0.8535351407317405,FLU01
0.20202946662902832,43.06692217599857,12.101897682957429,1.38132895671961,0.2152368211441818,0.2293032656329237,0.3597677746622372,0.8784419568237881,0.8546522674124409,FLU01
0.21415948867797852,43.066322246248546,12.099056397072218,1.38452076693429,0.2162247690289935,0.2247750434581167,0.3623532824833065,0.8783069667094376,0.8563453588058774,FLU01
0.21994948387145996,43.065674505569405,12.096160334892318,1.38773581352398,0.2166515167732447,0.2204052911693908,0.365014143704982,0.8782074372263693,0.8582818364515447,FLU01
0.23202943801879883,43.06495045417114,12.093226740135947,1.39094361870377,0.2167890033520615,0.2164247886377861,0.3674772170246922,0.8781362843297711,0.8601317907837036,FLU01
0.24412965774536133,43.0641164893168,12.090267512471996,1.39412228655399,0.2168719105121081,0.2129739045946346,0.369541163004415,0.8780934000651002,0.8616167138470028,FLU01
0.2500896453857422,43.06314641722656,12.0872868949358,1.39725963171111,0.2169734369077549,0.2100761230480814,0.3711099122992913,0.87810476777816,0.862548790963769,FLU01
0.26210904121398926,43.062021143429774,12.084284832864,1.40035046333188,0.2171446590673722,0.2077272600440592,0.3721343082907581,0.8781877015001186,0.8628138321454095,FLU01
0.27418947219848633,43.060740183593225,12.081251355926383,1.40339677953267,0.2172539890635638,0.2058523707182274,0.3726365970498465,0.8783891348626557,0.8623661505544574,FLU01
0.2801694869995117,43.05931722769992,12.078167461796795,1.40640074144714,0.2171672840346711,0.2044095602147853,0.3727528291219641,0.8786981454511977,0.8614321499086369,FLU01
0.29190945625305176,43.057768432381636,12.07500627035347,1.40936372515987,0.2168462149360205,0.2034469661574572,0.3726618408025697,0.8790393639871242,0.8604178291305253,FLU01
0.3040792942047119,43.05610970315729,12.071746218006467,1.41228743859075,0.2162414248778083,0.2029882103569705,0.3726205437788897,0.8793118690071311,0.8598731354831818,FLU01
0.31010937690734863,43.05435749008757,12.068372737349307,1.41517382230666,0.2153430490612939,0.2029992676531702,0.3727682388130232,0.8794671731710619,0.8600605965831568,FLU01
0.32202935218811035,43.0525271503634,12.064880920021835,1.41802771936553,0.2141784159453806,0.2034057331174838,0.3731963539451971,0.8794760913635331,0.8611166725033371,FLU01
0.3340494632720947,43.05063449492627,12.061271584463782,1.42085797050099,0.2128539496054778,0.2042341305576219,0.3739353364272246,0.8792917492071555,0.8631434060994944,FLU01
0.3400692939758301,43.048694085239276,12.057549926017714,1.42366404832677,0.2114005778907877,0.2054408468339627,0.375160109445146,0.8788394315235811,0.8664835319187854,FLU01
0.35205936431884766,43.04671553545768,12.053718994567589,1.42644900157469,0.2097084505197996,0.2069157118626726,0.3770055443987932,0.8781088050222009,0.8713230556085622,FLU01
0.3640894889831543,43.04470769486579,12.049788602161925,1.42922013273089,0.207689422560088,0.2085312017516247,0.3794969484919969,0.877132776572591,0.8776063598493641,FLU01
0.36999964714050293,43.04268434782671,12.045775174882579,1.43198042012031,0.2053485595593524,0.2101256360642031,0.3826186779220299,0.8759464215696706,0.8851777107781732,FLU01
0.38201904296875,43.04065120225914,12.041699168694095,1.43472595743333,0.2028531075731011,0.2117264881209898,0.3862439137942438,0.8745502558645746,0.893823259535312,FLU01
0.3940093517303467,43.038595022763275,12.037589404713117,1.43744118171152,0.200337733296329,0.2134422867851447,0.3902468753342806,0.8729344529352978,0.9033922023115032,FLU01
0.40590929985046387,43.036490896321084,12.033474221468225,1.44010730023626,0.1980376509044142,0.2153335401787261,0.3943825028161014,0.8711343161481276,0.9134537803641,FLU01
0.41206932067871094,43.034319015154324,12.029380386608068,1.44271421842723,0.1961695775883748,0.2174547254506194,0.3983945323551268,0.8692023560699397,0.9235415625843626,FLU01
0.42407965660095215,43.03208348221369,12.025321973084488,1.44525948039089,0.1947540960944589,0.2197487293796219,0.4021552055210451,0.8672096220999844,0.9333386041682684,FLU01
0.43002963066101074,43.029788686425945,12.021306994430915,1.44775162631847,0.1938088136571134,0.2222464225887787,0.4056988147154989,0.8651318645927634,0.9429490895634444,FLU01
0.442089319229126,43.027445261448065,12.017337474116118,1.45020587786951,0.1931282561901741,0.2248052821371678,0.4091453942452987,0.8629971657844712,0.9524817828155344,FLU01
0.45393943786621094,43.02505473637211,12.013411998555227,1.45263741612498,0.1926912464757453,0.227347745225178,0.4125164090430017,0.8608212930352723,0.9619139332480608,FLU01
0.46005964279174805,43.02262627228265,12.009529317360432,1.45506195978891,0.1923506900324759,0.2296666420201377,0.4158841827790306,0.8586587168959751,0.971197447650858,FLU01
0.47206950187683105,43.020178440152904,12.005691933568698,1.45749744175683,0.1920426581871614,0.231653601772988,0.4193578577544035,0.8565017299233251,0.9804588624821162,FLU01
0.4840693473815918,43.01773825930195,12.001905276083221,1.45995439690727,0.1917817991669826,0.2333116846515702,0.4230105441264249,0.8543111136296819,0.98985663738754,FLU01
0.49002933502197266,43.01532356377402,11.998183429764708,1.4624416143851,0.1916380041017212,0.2348133138083179,0.4268935657895897,0.8519973395085894,0.9996638734200484,FLU01
0.5020096302032471,43.012952231479176,11.99454440548385,1.46496784155952,0.191594280859652,0.2361737855918005,0.43096315412838,0.8495789158900008,1.009795422391365,FLU01
0.51405930519104,43.01062481215831,11.991006803102323,1.46755109006927,0.1916698340544069,0.2373172763008076,0.435172441721543,0.84709393283675,1.0200819030705746,FLU01
0.5200293064117432,43.00834151605977,11.987575544068704,1.47019998619745,0.191801086141795,0.2380338334845979,0.4394661509999498,0.8446429657534265,1.0301984904792003,FLU01
0.5319993495941162,43.00610358424319,11.984245321778701,1.47291072167164,0.1919659259983243,0.2382484364661445,0.4437776746375063,0.8422874457513724,1.0399222393725869,FLU01
0.5440893173217773,43.003907299299044,11.981013427931202,1.47567103179346,0.1922369610709936,0.2380575804872817,0.448003375889284,0.8400395909494596,1.0491191993154323,FLU01
0.5499694347381592,43.00175056348053,11.977877593350343,1.47846341894004,0.1926064811206769,0.2375594752191817,0.4520560622680104,0.8379221656756897,1.0576821080073424,FLU01
0.5620894432067871,42.999636989982264,11.974834938384276,1.48127611992392,0.1930682476896224,0.2368308712930342,0.4559245358933788,0.8359238049649309,1.0656528677174535,FLU01
0.5740594863891602,42.997582465378855,11.97188200464609,1.48410471932251,0.1936277645161951,0.2359377806799416,0.4596201406267185,0.8340209702319001,1.073115602786652,FLU01
0.58009934425354,42.99561111339335,11.9690086039559,1.48694632491016,0.1942260454101857,0.2348814832375591,0.4632417708779804,0.8321742568899121,1.0802826621356387,FLU01
0.592029333114624,42.99373811600026,11.966201388874254,1.48980220541737,0.1948676186503801,0.2337095309181907,0.4668561410225397,0.8303323490922607,1.087346780209152,FLU01
0.6040196418762207,42.99196714845766,11.9634511971704,1.4926684804792,0.1956066039232899,0.2324899633995637,0.4704741959249693,0.8284567003705264,1.0944008524899398,FLU01
0.6100594997406006,42.99030290699375,11.96074928591753,1.49554149663657,0.1963286348882427,0.2310999765884687,0.4741598614697789,0.8265714087208004,1.1014645944066264,FLU01
0.6220593452453613,42.988742029225705,11.958087747384923,1.49842951270326,0.1969353832556831,0.229378224520359,0.4779407355467747,0.8247270689402846,1.1084485760232363,FLU01
0.6340193748474121,42.98727984506695,11.955458459204806,1.50133746997311,0.1972243443138758,0.2271320814905828,0.481869264463616,0.8229918514377956,1.1152875461025773,FLU01
0.6459696292877197,42.98589551265559,11.952865371619112,1.50426324508026,0.197137349676473,0.2243684267450557,0.4858780040441036,0.8214123444583741,1.1218486292163643,FLU01
0.6520390510559082,42.98455043197009,11.950321044223415,1.50719997139006,0.196849335481841,0.2213497240656038,0.4897522350568298,0.819998406726061,1.1279127144780885,FLU01
0.6641592979431152,42.98321813340999,11.947836593656916,1.510134587421,0.196575224275205,0.2182925661735924,0.4933000772826488,0.8187561117374534,1.1332595250180697,FLU01
0.6701090335845947,42.9818881090373,11.94541547412581,1.51305612840776,0.1964366635717263,0.2153463753539322,0.4964214762198247,0.8176822694509536,1.137795937953482,FLU01
0.682159423828125,42.98056614686675,11.943048417571845,1.51595641038983,0.1964267001096161,0.2124889627788805,0.4991360330517718,0.8167791700885516,1.141537287339359,FLU01
0.6939992904663086,42.97925342990811,11.940717498510992,1.51884002847917,0.1965171557984474,0.2097736745552637,0.501471024377448,0.8160286910705432,1.1445794375247564,FLU01
0.7000093460083008,42.97795010145819,11.938405274995091,1.52171418189385,0.1966143684529197,0.2071651525002996,0.5034605475476319,0.8154464217656644,1.1469559597259815,FLU01
0.7120294570922852,42.97665705566669,11.936099400189107,1.52459408567529,0.1966285330677244,0.2045237800608059,0.5051900734592281,0.8150400192944721,1.1487364252952532,FLU01
0.7240593433380127,42.975373712898545,11.933792585441722,1.52749876498181,0.1965391518890105,0.2017476928468363,0.5067416334233878,0.8147902473404574,1.1500244945457845,FLU01
0.7301692962646484,42.97410601005504,11.931480010386394,1.53043449916393,0.196275841386236,0.1988108372669492,0.5081867978518583,0.8146755326891894,1.1509618521921376,FLU01
0.742159366607666,42.972855294880446,11.929158121180876,1.53339826552831,0.1958204549844747,0.1958253967986587,0.5095108976985606,0.8146811698478909,1.1516071372026182,FLU01
0.7541196346282959,42.97160720745387,11.926828119679158,1.53638477630621,0.195366204579381,0.1930838145796037,0.5106249743313823,0.8147470909703893,1.1519959334881196,FLU01
0.7600090503692627,42.97035730240896,11.924492226821485,1.53939340790206,0.1949952036250152,0.1906700530265963,0.5115123601710948,0.8148477813888125,1.1521505516508208,FLU01
0.7719993591308594,42.96910855045826,11.922151923310992,1.54243263938916,0.1947723206171979,0.1884778870423023,0.5122476634770453,0.8149491766237748,1.152155026650432,FLU01
0.7841293811798096,42.967871669565284,11.919798383291777,1.54551379787294,0.194725601776692,0.1864070000287925,0.5129001921269817,0.8150262347121571,1.152087869455447,FLU01
0.7900593280792236,42.966659576149596,11.917414871873916,1.54864628609925,0.1948004029362392,0.1844165787684295,0.513553430765519,0.8150498158028084,1.1521032981408237,FLU01
0.8021693229675293,42.965479966615476,11.914989281033115,1.55183662369929,0.194912039619671,0.1825400068011799,0.514273138314492,0.8149917680176214,1.1523699867879325,FLU01
0.8141193389892578,42.964340819113204,11.912518951796812,1.55508569024309,0.1948903159137404,0.1807091188118223,0.5151722889935317,0.8148370952493893,1.1530868599165989,FLU01
0.819969654083252,42.96323907494707,11.910007180384866,1.55838764315557,0.194657215507025,0.1788900054133705,0.5163255499852173,0.8145642152996403,1.1543976686581223,FLU01
0.8320093154907227,42.96215762025622,11.907462503371107,1.56171847490718,0.1941993764196101,0.1771172664020167,0.5176331539858744,0.8142309218122016,1.1561001009223963,FLU01
0.8440694808959961,42.96105654762232,11.904895128009798,1.56504461874854,0.19366702041018,0.1755646576344975,0.5188430014608664,0.8139238760659402,1.1577462414888289,FLU01
0.8500893115997314,42.959890786604774,11.902315653627511,1.56833722133763,0.193363583785003,0.1744882986581571,0.5196403167794225,0.8137188084802902,1.1588020060251534,FLU01
0.8621695041656494,42.9586392276492,11.899736762843759,1.57157490315747,0.1934685419662944,0.1740013833384002,0.5199342291546144,0.813610373101988,1.1591377256095186,FLU01
0.8740694522857666,42.95730436450731,11.897162190779511,1.57474498827949,0.193956771254468,0.1740899084420459,0.519765876558198,0.8135827605283129,1.1588329872194212,FLU01
0.8860993385314941,42.955898133313895,11.894586609496287,1.57784160807144,0.194625149121836,0.1746462766525691,0.5192837995991263,0.8136117408534563,1.1581461268176898,FLU01
0.8919994831085205,42.954438426794695,11.891995444471888,1.58086945627108,0.1952942696851255,0.1755933518413832,0.5186087047908006,0.8136781515639152,1.157296330815876,FLU01
0.9040694236755371,42.95294173548382,11.889374945999236,1.58383413811266,0.1959219166671571,0.1768871069510151,0.5178804807380046,0.8137108587419372,1.1565762407018991,FLU01
0.9099893569946289,42.95143203580483,11.886709578861826,1.5867463255811,0.1964781667173003,0.1784160925142306,0.5172917016345906,0.8136174305872214,1.1563505854886345,FLU01
0.9220294952392578,42.949940751750546,11.883983716914486,1.58961568757854,0.1967867512297464,0.1800215443828302,0.5170761466007551,0.8133261810091797,1.1570348691890455,FLU01
0.9339594841003418,42.94849468809298,11.88118953251552,1.59243673257479,0.1966685878926293,0.1815639599445953,0.5173253329366132,0.8128533046544001,1.15872840009576,FLU01
0.9400293827056885,42.9470989308893,11.878330226262733,1.59520050743433,0.1960761798002412,0.1830163824572112,0.5179989911369464,0.8122414546477699,1.1613151583809624,FLU01
0.9520094394683838,42.94574295077291,11.875420100551878,1.59789419929093,0.1950913823167563,0.184455390281079,0.5189188720352143,0.8115656262975243,1.1644457475651349,FLU01
0.964099645614624,42.94440927999676,11.872482789444291,1.60050669979589,0.1939448142736806,0.1859088505529477,0.5198885696105696,0.8108878982268173,1.1677008076380777,FLU01
0.9700894355773926,42.943078990873346,11.869538796181814,1.60303803192328,0.1928632182127168,0.1874248905275788,0.5208035361240569,0.8102094582464693,1.170887220812599,FLU01
0.9820694923400879,42.94174507266189,11.866614631859193,1.60549687859613,0.1920222223089429,0.1889578968751936,0.5215504310556954,0.8095724348158457,1.173719196196038,FLU01
0.9939994812011719,42.940418826622135,11.8637352703862,1.60789131468269,0.1913318933290815,0.190508352410483,0.5218457955093114,0.8091820808484368,1.1755394593607702,FLU01
0.9999794960021973,42.93909872726408,11.860941916547688,1.61022272762327,0.1908400843360056,0.1917727694874935,0.5221599613240459,0.8087967865192057,1.177201820287515,FLU01
1.0120196342468262,42.93782227869224,11.858178205242098,1.61248118859787,0.190416987316781,0.1929189838084513,0.5222545844193683,0.8085627901903897,1.178275835360311,FLU01
1.0240693092346191,42.93659002995446,11.855436231972305,1.61464959011059,0.1899637042596188,0.1939434930011454,0.5221696622847214,0.8084791626108485,1.178844176478946,FLU01
1.0300593376159668,42.935392587096885,11.852722379563943,1.61672402227669,0.189432550379665,0.1948691418857413,0.5218532299426127,0.8085855135950886,1.1788006912764053,FLU01
1.0420396327972412,42.93422014352382,11.850048416091283,1.61871191160013,0.1887619422977468,0.1956651228807824,0.5212389193428824,0.8089462762076939,1.1779639691634176,FLU01
1.0540993213653564,42.93306329635743,11.847422655245737,1.62062669749412,0.1879074387468063,0.1962309028058881,0.5203542903411931,0.8095774451966375,1.1763157755475817,FLU01
1.060009479522705,42.931915848343124,11.844847110019089,1.62248090851987,0.1869264296483377,0.1965046527270727,0.5192496467004609,0.8104469358057836,1.1739263337595816,FLU01
1.0719993114471436,42.930782947573334,11.842319787102895,1.62427521059284,0.1858639143441887,0.1964595267346226,0.5180306885407248,0.8114816482397409,1.1710208770038475,FLU01
1.084059476852417,42.92967153009931,11.839840592668224,1.62600631908715,0.184766599220554,0.1961199411003255,0.5167526875419933,0.8126284098118912,1.1677494451213686,FLU01
1.0900993347167969,42.92858947442119,11.837412584838091,1.62767161552709,0.183651666685193,0.1955254121438014,0.515413718707171,0.813873809074965,1.16414115647509,FLU01
1.1019890308380127,42.92755174484273,11.835036368770318,1.62927249901733,0.1824185811036584,0.1946710112605783,0.514099271868735,0.8151862347383869,1.160384637795881,FLU01
1.1200194358825684,42.926572819429566,11.832714780206572,1.63081311397267,0.1810560443449853,0.1935524598144878,0.5128924070983021,0.8165154823068681,1.156669229169618,FLU01
1.1259994506835938,42.92565386953356,11.830454185297185,1.63229175922176,0.1795589125999982,0.1921436753657035,0.5118684001525845,0.8178203628230952,1.153150838013506,FLU01
1.13201904296875,42.924783378232405,11.828264796724511,1.63370460956612,0.17798404890025,0.190496522440582,0.5109395898060947,0.8191297142967638,1.1496755874250462,FLU01
1.144139051437378,42.92395309162566,11.826157519717299,1.63504550474307,0.1764324291173266,0.1886661535666059,0.5099368787770162,0.8205126812653757,1.1459079885911052,FLU01
1.1500895023345947,42.92316104375732,11.824130312460738,1.63630946831121,0.1750426534714894,0.1867896823656059,0.5087681643172364,0.8219638915455384,1.1417512103063148,FLU01
1.1621594429016113,42.92241613892202,11.822173563235594,1.63748060239564,0.1738643576698547,0.185001384366104,0.5074121687317352,0.8234552592203361,1.1372592617164918,FLU01
1.1741294860839844,42.92172680873273,11.820279590823986,1.63853381595655,0.1728948165148018,0.1834219463614733,0.5059062387426563,0.8249379671324022,1.1326036089278633,FLU01
1.1800894737243652,42.92109132757605,11.818442464504756,1.63945625164315,0.1721916950265598,0.1821136057704597,0.5042032414495199,0.826416206320374,1.127722030366593,FLU01
1.192009449005127,42.920508361457905,11.816657822856826,1.64024989345502,0.1716701264472291,0.1809969886600121,0.5022930012616832,0.827931880449793,1.122526550655346,FLU01
1.2039895057678223,42.9199873513644,11.814916982893465,1.64093077044759,0.171139867269221,0.179876618782744,0.5002961785191945,0.8294933885242554,1.1171404057392198,FLU01
1.2099792957305908,42.91953332403864,11.813211617029424,1.6415266296739,0.170464527407101,0.178596417389162,0.4983717030949372,0.8310660684601926,1.111807242321138,FLU01
1.2220096588134766,42.919137846120066,11.811537825846301,1.64205668309639,0.1696122214822352,0.1770448211089981,0.4966071032307981,0.8326272939695525,1.1066479037434689,FLU01
1.2339494228363037,42.91878003984175,11.80989277010434,1.64252837200029,0.1687272456003462,0.1752928655172371,0.4949515973685022,0.8341621210251904,1.10160950063455,FLU01
1.2400193214416504,42.91844795593079,11.808271440171836,1.64292967036238,0.1679730309165704,0.1735208898940044,0.4932625945128889,0.8356838962846579,1.0965058337119231,FLU01
1.2520594596862793,42.918145500556875,11.806657822715238,1.64324139095135,0.1673499802737463,0.1718540313079096,0.4915164727906266,0.8371808245540852,1.0913685427902151,FLU01
1.2640693187713623,42.91787532026774,11.805034676753849,1.64345459109174,0.1667976015889059,0.1704161585479521,0.4897635217852549,0.8386111051843113,1.0863888701871618,FLU01
1.2700393199920654,42.91763024026204,11.803395093259837,1.64356774653139,0.1661775892658839,0.1692074450712005,0.4880304393786944,0.8399881782490123,1.0816141285364524,FLU01
1.2820496559143066,42.9173934370674,11.801741796110036,1.64358723830894,0.1653906480742923,0.1681661961763533,0.4863126914354225,0.8413477462630878,1.076982860752081,FLU01
1.2940194606781006,42.91715173838702,11.800086084851898,1.64352313152585,0.1644122114217805,0.1672788593279167,0.4845359883695319,0.8427403419393851,1.0723140750097888,FLU01
1.299999475479126,42.9169053609844,11.798435227635196,1.64339136190127,0.1632522038645216,0.16645905475081,0.482737769294599,0.844158958444035,1.0676345271269965,FLU01
1.3120696544647217,42.91665466024506,11.79678528839031,1.6432061228633,0.1619576981964659,0.1656901891024643,0.4810045935711369,0.8455477787763133,1.0631308023162849,FLU01
1.3240790367126465,42.916392029937015,11.79513256264778,1.64296698223428,0.1605577402903887,0.1649895628411548,0.4793595348581057,0.8468849346439864,1.058866816719214,FLU01
1.3300094604492188,42.91609917908272,11.793481026031145,1.64267243344365,0.1592289035798206,0.1644310517072364,0.4777479237330365,0.8481541763547433,1.0547785222467885,FLU01
1.3420994281768799,42.915764819632386,11.791834411229843,1.64232403303909,0.1580544530446421,0.1640685282363069,0.4760747606666914,0.8493839709879647,1.050691634658443,FLU01
1.3598694801330566,42.91539654345206,11.790192067761893,1.64193027367786,0.1569774120840202,0.1638534512159969,0.4743471988268418,0.8505908967212965,1.0465862446162928,FLU01
1.3660693168640137,42.915001290764394,11.788549528831027,1.64150611954704,0.1558981769229372,0.1637497949085801,0.4726615817835729,0.8517469061906555,1.0426478039737983,FLU01
1.3719093799591064,42.91457463022698,11.786912297219317,1.64106129695337,0.1548511693231297,0.1637176411466579,0.4710367837655594,0.852843477829567,1.0388952667002147,FLU01
1.3840794563293457,42.91410548290514,11.785296171741152,1.6406046427005,0.153895931412466,0.1637338204862571,0.4694411506692143,0.8538924313881858,1.0352472950174063,FLU01
1.3900694847106934,42.91358876676259,11.78371606446018,1.64014107134369,0.1530826988847311,0.163750910603434,0.4678353694005047,0.8549160155925295,1.031589952624964,FLU01
1.4020094871520996,42.9130335394625,11.782181669301849,1.63967376572102,0.1523534808863811,0.1637310716221567,0.4662542442156216,0.8559132741102821,1.0279730141947625,FLU01
1.4140393733978271,42.91245791257734,11.780685228848654,1.63919930832257,0.1516274586214728,0.1636661865398041,0.4647711441709284,0.8568607102216542,1.024549007843613,FLU01
1.4199295043945312,42.91186067977196,11.779218338579824,1.63870505277464,0.1509180239952715,0.1636706454742755,0.4634818583513609,0.8576830631547796,1.0216051656085925,FLU01
1.4320793151855469,42.91122462979865,11.777782865020129,1.63818008010556,0.150368868481525,0.1638580024781309,0.462306136676019,0.8583780020522176,1.0190452164965298,FLU01
1.4440593719482422,42.910534288153485,11.776382104318145,1.63762872411795,0.15011170009436,0.1642119132899958,0.4611406887639954,0.8589820662823455,1.0166397413834878,FLU01
1.4500694274902344,42.9097888859601,11.775010375353475,1.63706106646141,0.1500863285503352,0.1646080623702657,0.4599794636892531,0.8595331132476134,1.0142925628706951,FLU01
1.4620893001556396,42.9090027950233,11.773646076875934,1.63647964588754,0.1500513715679541,0.1648776586941364,0.4589782567669323,0.8600226179405421,1.0122236830243934,FLU01
1.4740793704986572,42.90818364654979,11.772270684762248,1.63587049554199,0.1499094582359524,0.1651312558669712,0.458189497754396,0.8604192041178385,1.0106102797582344,FLU01
1.480159044265747,42.9073321394967,11.770885302443219,1.63520732062574,0.1497134824179016,0.1656049348812046,0.4575407765330191,0.8607074511905068,1.0094443101405914,FLU01
1.4920694828033447,42.906452708359666,11.769498084678219,1.63447442814636,0.1496790176405611,0.1664941364194014,0.4569380416732678,0.8608620797130707,1.0086607532362677,FLU01
1.5039894580841064,42.90555697774562,11.76810115349491,1.63365541352418,0.1498839087988124,0.1679269256581296,0.4562721540161028,0.860901320124266,1.008109427117606,FLU01
1.5099990367889404,42.90465195536899,11.766659793142537,1.63272747032822,0.150155846909676,0.1698902178379462,0.4555761652420113,0.8608373209760348,1.007847477101531,FLU01
1.5221493244171143,42.90373027687701,11.765126119987599,1.63169236296438,0.1503860804214282,0.1723234322107904,0.4549013735381001,0.8606703212495032,1.0079492228883296,FLU01
1.5341193675994873,42.90279612766062,11.763473522173683,1.63057906295066,0.1504208791996627,0.1750669284568317,0.4543059976945973,0.8604250055177427,1.0084332984095317,FLU01
1.540109634399414,42.9018612482887,11.761705909552347,1.62942147643998,0.1499676821467087,0.1778194409855971,0.4539101798550078,0.8601485274899375,1.0093402638999796,FLU01
1.552079439163208,42.900923528956355,11.759836657053143,1.62824518649456,0.1489332471167511,0.1804576495694139,0.4537504209921212,0.8598630589021813,1.010653552812391,FLU01
1.5640194416046143,42.89997859822006,11.757880629576505,1.62705820188239,0.1474448837575736,0.1830498855263257,0.4537776171849411,0.8595572231122671,1.0123175237139694,FLU01
1.5701193809509277,42.89901894897139,11.755851429466588,1.62585715707949,0.1456714898459507,0.1857109723628027,0.4539169993232598,0.8592151124808567,1.0142599382235435,FLU01
1.5820393562316895,42.898032536098526,11.753764016314108,1.62463342408982,0.1438621730275115,0.1886090128385783,0.4540873466812895,0.8587985776838511,1.0164463047841712,FLU01
1.599989652633667,42.89700877443056,11.751635330910801,1.62337487760207,0.1422525655604094,0.1918214245153872,0.4541659401158325,0.8583134902394761,1.018691860266446,FLU01
1.6059393882751465,42.89594645919988,11.749474586647636,1.62207700574125,0.1408611287766216,0.1953118940490555,0.454151902232941,0.8577630536115133,1.020981727573353,FLU01
1.6120493412017822,42.894855957155414,11.7472802600887,1.62074984571667,0.1396261626900819,0.1989451078616775,0.4541392263558332,0.8571364779516,1.0234309221354427,FLU01
1.6240193843841553,42.89374210642973,11.745038799147267,1.61941153901668,0.1383630669135037,0.2025441325824335,0.4542958508816918,0.8564150955829763,1.0262672866111169,FLU01
1.6300694942474365,42.89260080120448,11.742748618953158,1.61807276996854,0.1369535006070748,0.2060285289851804,0.454717527884251,0.855586321624245,1.029629368042466,FLU01
1.642099380493164,42.891421999403974,11.740436384267525,1.61673134930655,0.1354124299389117,0.2093345489780788,0.4553001812563151,0.8547188224031049,1.0332335716527392,FLU01
1.6540093421936035,42.89018384990641,11.738132899642835,1.61538397303679,0.1338621093270677,0.212495442915226,0.4558780910086375,0.8538745742584741,1.036744821787864,FLU01
1.660149335861206,42.88887113282044,11.735862343170481,1.6140293036163,0.132443420952926,0.2155674504921343,0.4563169741744091,0.8530909878875282,1.0399209780342598,FLU01
1.6720993518829346,42.887478773433486,11.733640408262147,1.61267976621542,0.1311794905502798,0.2185496534591688,0.4566297667366737,0.8523598103863514,1.042791959842427,FLU01
1.6840696334838867,42.886022483538454,11.731497716193985,1.61138242862928,0.130273813779478,0.2214036026473037,0.4570346467658512,0.8515447785253331,1.0458514264715038,FLU01
1.690169334411621,42.88454024200519,11.729458083388238,1.61016981294255,0.1296687116599587,0.223881209523561,0.457678690545853,0.850642960036082,1.049222056478872,FLU01
1.7018992900848389,42.883034476288685,11.727502605452173,1.60902101443827,0.1292758300532613,0.2259951950333977,0.4585912352049652,0.8496516995681473,1.0529604939758286,FLU01
1.7141094207763672,42.88150830550512,11.725597537687861,1.60789048587913,0.129175195442192,0.2279522147158617,0.4596655749256485,0.848562971096947,1.0570026697177093,FLU01
1.7201693058013916,42.879970362158474,11.723709358350675,1.60674350276567,0.1292600874640108,0.2299876618348425,0.4607506732231832,0.847411542473267,1.0611830921004564,FLU01
1.7321393489837646,42.878420143777475,11.72181243193512,1.60557023992704,0.1295063141522682,0.2322632973450936,0.4618180095029117,0.8461713782679294,1.0655725161229372,FLU01
1.744119644165039,42.87686971004132,11.719906705605752,1.60438166211739,0.1298745971679931,0.2347196450609888,0.4628890188551868,0.8448508942151729,1.0701695838604424,FLU01
1.7500693798065186,42.87533171167479,11.718003808005847,1.60319557084279,0.1301930908371058,0.2371817993232777,0.4640597890068502,0.8434708444249696,1.0750195423836215,FLU01
1.7619893550872803,42.873807922144806,11.716105288393521,1.60201978906819,0.1304230786821041,0.2395604052571349,0.4653908246308433,0.842028510876884,1.0801767628813044,FLU01
1.7739994525909424,42.872302038074395,11.71420435143665,1.60086136024553,0.1304474954040876,0.2417939540347381,0.4669632048865924,0.8405144258233108,1.0857516451689746,FLU01
1.7799994945526123,42.87082375035425,11.712307117525938,1.59973137954265,0.1304908782693784,0.2439600749747266,0.4687326777840338,0.8388952790928204,1.0917475002828925,FLU01
1.7921290397644043,42.86938474538147,11.710426606675753,1.59862963734935,0.1308105782810929,0.2462172014798885,0.4705862547288776,0.8371464980309158,1.0980912977547923,FLU01
1.8040094375610352,42.86799445844599,11.708567811942999,1.59754424436815,0.1314277198252254,0.2486959413145901,0.4724129780004504,0.8352862152890695,1.104655121627092,FLU01
1.8114094734191895,42.86665713803177,11.706726691857284,1.59646159099379,0.1322245145119548,0.2514348997328049,0.4741126144210676,0.8333753042928812,1.1112322476976433,FLU01
1.822129487991333,42.86537453771143,11.704887802092912,1.59537581577004,0.133022431932131,0.2543728839741211,0.4756344040118007,0.8314874516322474,1.1176274429090642,FLU01
1.8400394916534424,42.86415029179943,11.703036643627513,1.59428969574019,0.1336777977724737,0.2574156655729044,0.4770020589726624,0.8296604469517641,1.1237881816608852,FLU01
1.8460190296173096,42.86298628337045,11.70117457339984,1.59319954714469,0.1342681778895884,0.2604865641743495,0.4781781758915354,0.827927797813249,1.1295693668185638,FLU01
1.85206937789917,42.86187626381252,11.699308886141523,1.59209406724199,0.1349191053603103,0.2636211651134945,0.4790800966827492,0.8263068299823164,1.1348356302133653,FLU01
1.8640694618225098,42.86082151547134,11.697439353132836,1.5909597977649,0.1356619471293812,0.2667550022432569,0.4796341149295011,0.8248567879790158,1.139358264753186,FLU01
1.8700695037841797,42.85982658939702,11.695552912974392,1.58978664712027,0.1362811563563705,0.2698649034457819,0.479836530098074,0.8236244803876396,1.1430679541487447,FLU01
1.8821594715118408,42.858911550203175,11.693641151562133,1.58856672652506,0.1365987048487764,0.2728466706124586,0.4797408467479137,0.8226446426805004,1.1459488183787534,FLU01
1.8939692974090576,42.858093886694405,11.691710604579441,1.58730390448001,0.136651386426335,0.2756838399954791,0.4794323636857473,0.8218694711472163,1.1481803309567982,FLU01
1.899949312210083,42.857382924442845,11.689775315336703,1.58600900525849,0.13653226209876,0.2783803606056453,0.4789237236385869,0.8212766788186652,1.1498046562953703,FLU01
1.9120593070983887,42.856783460183124,11.687844737626563,1.58469900415124,0.1362723084110761,0.2808880001812621,0.478259287554505,0.8208531191281089,1.1508724100785117,FLU01
1.9239892959594727,42.85629615909147,11.685920125640507,1.5833961475446,0.1358982576000587,0.2831986494418,0.4774987143108937,0.8205639319194161,1.1515108091566275,FLU01
1.9300594329833984,42.855939459201636,11.68399969689267,1.58211773909874,0.1354103412296181,0.2852679691607387,0.4767943575456287,0.8203373488215915,1.15201898028539,FLU01
1.94205904006958,42.85573125396195,11.6820852261921,1.58087920716978,0.1348621289360405,0.2870742337092032,0.4763036338796799,0.8200825805198672,1.1527418611874425,FLU01
1.954059362411499,42.8556703581703,11.680192788530405,1.57968853908508,0.1343143280067969,0.2886272707494406,0.4760098663894224,0.8197978817804642,1.1536570480051096,FLU01
1.9599690437316895,42.85574532949704,11.678341741347708,1.57854195184576,0.1338066512394228,0.2899476557274951,0.4757606446735439,0.8195596049110981,1.1544358753822097,FLU01
1.972029447555542,42.85593197956132,11.67654044679216,1.5774326024808,0.13330990232743,0.2910444708754713,0.4753943568567634,0.819464331977306,1.1547034753708254,FLU01
1.9840893745422363,42.85621279115094,11.674788088110176,1.57634807899301,0.132725235502062,0.291825635460461,0.4748400012910297,0.8196028205923618,1.154170802031551,FLU01
1.990079641342163,42.85658358090677,11.67309474803011,1.57529049752025,0.1320398327413104,0.2920093878931117,0.4742489079324066,0.8199902275496072,1.1528713645800246,FLU01
2.0019493103027344,42.85706162462202,11.671439055545306,1.57424095486628,0.1312496067164474,0.2919797326178306,0.4731947566392543,0.8207363150039816,1.1502369262568857,FLU01
2.01401948928833,42.857597658877694,11.669850545519125,1.57315850005666,0.1305627466169165,0.2916741879634507,0.4717342446253124,0.8217945848686851,1.146370600683924,FLU01
2.0199995040893555,42.85818911822389,11.668320706036866,1.57203665260985,0.1300658665733464,0.2911587466155091,0.4697919131753919,0.8231676700021784,1.1411905136151752,FLU01
2.0321593284606934,42.8588523386602,11.66683000193791,1.57088777661592,0.1296821272186566,0.2904128759081509,0.4675093320607506,0.8247896288284133,1.1349942470893644,FLU01
2.044079303741455,42.85962291643,11.665360257981035,1.56973752591616,0.1291528260349413,0.2892744125780668,0.4652313121067072,0.8265589440507399,1.1283602315973489,FLU01
2.0500195026397705,42.86052508749981,11.66390411834351,1.56861271678481,0.1283406563461699,0.2876814147229712,0.4632012100849741,0.8283795739438774,1.1217649606806772,FLU01
2.062039375305176,42.861558513594446,11.662462877131418,1.56752884512897,0.1272032541265855,0.2855937381642242,0.4614556834721198,0.8302494812116842,1.1152508665490914,FLU01
2.0801093578338623,42.862696353382944,11.66103235987822,1.56650724818796,0.1257220143851082,0.2830487302876891,0.4600012329170538,0.8321515830041231,1.108882291694883,FLU01
2.085879325866699,42.863793256195095,11.659594590077063,1.5656624847543,0.1234510893932864,0.2802635622805814,0.4597503417559865,0.8335717050384227,1.1049204634637608,FLU01
2.092059373855591,42.86475295405171,11.658159495355335,1.56513879267847,0.1199500767005392,0.2769663086859084,0.4611450980438683,0.8344140707721485,1.104032468270712,FLU01
2.103999376296997,42.865489536813584,11.656820599413948,1.5649120683113,0.1169547511258185,0.2745177001032415,0.4636142230522098,0.8342802111418084,1.1066585446584158,FLU01
2.1100094318389893,42.865984901551656,11.655579672991507,1.56475341184071,0.1149343475067416,0.2735593398066348,0.4661153553233604,0.8334817687865373,1.1110965505423227,FLU01
2.1220192909240723,42.86628464005662,11.654385280931479,1.56445560198076,0.1136180565045591,0.2738962776212792,0.4676018367459388,0.8327186131059869,1.1146358198316515,FLU01
2.134129047393799,42.866493337612155,11.653226699005756,1.56394862717239,0.1127804681365977,0.2747108640851065,0.4676166158438843,0.832555828606837,1.1153300441300915,FLU01
2.1399993896484375,42.866677840052034,11.652093710541806,1.56326971871161,0.1121698406769877,0.2756241895458938,0.466418634457542,0.8330083375395652,1.1133448617645083,FLU01
2.152069330215454,42.86689156083776,11.650964081046425,1.56247868732913,0.1115144722461988,0.2762966899233368,0.4645425383193933,0.8339213942026156,1.109525790854567,FLU01
2.164059638977051,42.86716305524851,11.649815845743944,1.56162986927987,0.1105583559941846,0.2766678651750898,0.4624688451752932,0.8350774272733947,1.1048770578174778,FLU01
2.170069456100464,42.867484960710044,11.648636360858916,1.5607689033597,0.1091972399657782,0.2768596683271687,0.4606169455893306,0.8362157115682424,1.1004750188085228,FLU01
2.182039499282837,42.86783653253997,11.64742793979542,1.55993748881591,0.1075103570726735,0.2770527486111884,0.4592504677239422,0.837121440117521,1.0971306872258642,FLU01
2.194059371948242,42.86819819760922,11.646203756966202,1.55915289802842,0.1056823348081801,0.2774243262049025,0.4584561553669411,0.837666366129983,1.0952641863531185,FLU01
2.1999590396881104,42.868550099625736,11.6449809470937,1.55838481365114,0.1038742384858297,0.2780776767321163,0.4581088737567633,0.8378658652001331,1.0947253018183754,FLU01
2.2119393348693848,42.86888475435353,11.643777472082263,1.55756798920379,0.1021646203111137,0.2790055403209081,0.4578565967919066,0.8379055051740962,1.0947060091707197,FLU01
2.2240190505981445,42.86921029573159,11.642611873561862,1.55666064357243,0.1006142651748429,0.2801572578931296,0.4573227735308975,0.8380003349063389,1.0942911240379525,FLU01
2.2300796508789062,42.869547251888434,11.641492077704413,1.55567760352369,0.0990784592281495,0.281295263466423,0.4565131457182574,0.8382435096406966,1.0932189966722587,FLU01
2.241999387741089,42.86992737948913,11.640413709473023,1.55466112825105,0.0973582640660192,0.2820819626573027,0.4556796183182994,0.8386341396644571,1.091684764546617,FLU01
2.2540693283081055,42.870379801289346,11.639379195013987,1.55365253997882,0.0952085465215035,0.2822800819055017,0.4551347103882492,0.8391100544198541,1.0901168203107932,FLU01
2.260059356689453,42.87091111755717,11.638406993798924,1.55267419224636,0.0927577256000391,0.2819123665199606,0.4548989740636381,0.8396358409098987,1.0886173112794226,FLU01
2.2720694541931152,42.87151249299086,11.63751892832272,1.55172746819896,0.0900335297564452,0.2810668157630131,0.4548983659283255,0.8402159753731032,1.0871150358814294,FLU01
2.2840893268585205,42.87217073339025,11.636739844577619,1.55081348618773,0.087010301711681,0.2798210901478152,0.4550879861308526,0.8408473641416112,1.0855857331121044,FLU01
2.2900893688201904,42.87286798814148,11.636087869130279,1.54994174903426,0.0838496469167006,0.2782769548965817,0.4554092053713564,0.8415067609642006,1.084041249015684,FLU01
2.301929473876953,42.87357032531054,11.635568591492529,1.54911929647817,0.0807916699660243,0.276475016877143,0.4558036101339439,0.8421860483858352,1.08244996487047,FLU01
2.3200294971466064,42.874250176127134,11.635181290461276,1.54834510814153,0.0779176226553528,0.2744200279119562,0.4561634243507678,0.8429338186626044,1.0805900901845884,FLU01
2.325899362564087,42.87489726265221,11.63492472924679,1.54762428101677,0.0753384981955735,0.2721371057769569,0.4563226411355095,0.8438217545999213,1.0781289075447051,FLU01
2.3320093154907227,42.87552162781185,11.634791088567738,1.54697175030806,0.0729823185568205,0.2696046980539813,0.4563153339154141,0.8448450769217729,1.0751169940690248,FLU01
2.3440990447998047,42.8761519455461,11.634771159039303,1.54640016653523,0.0707247853970493,0.2668142701217192,0.4563389040347689,0.8459095428320345,1.071992505622113,FLU01
2.3499693870544434,42.87680920242701,11.634860308632312,1.54591170212015,0.0683951046314972,0.2637754035513499,0.4565773289106014,0.846924901551861,1.069168993678434,FLU01
2.362009048461914,42.87748900501174,11.635065407488696,1.54549258476206,0.0659429110404165,0.2605400881996457,0.4569739627251692,0.8479063582234139,1.066559437898136,FLU01
2.3739893436431885,42.878165045618516,11.635394846413476,1.54512066055472,0.0634441953455665,0.2572435759245629,0.4572982574452807,0.8489280773186895,1.063767778416271,FLU01
2.3799996376037598,42.87882043827176,11.63585188577298,1.54477970807155,0.0609787376593807,0.2539336523170269,0.457410543202104,0.8500440510596846,1.0605278747647326,FLU01
2.3920693397521973,42.87944986966522,11.636432536532084,1.54446890274128,0.0585747333014587,0.2506322377646365,0.457355025801978,0.8512219818504605,1.0569700957987227,FLU01
2.40390944480896,42.88005189716387,11.637132568970173,1.54418867797134,0.056257744373899,0.2472792607083442,0.457246021882689,0.8524166287056766,1.0533188102189768,FLU01
2.410019636154175,42.880620404196634,11.637956097673907,1.5439383352609,0.0540528657693344,0.243883742949382,0.4571047202323524,0.8536124895808548,1.049639420321897,FLU01
2.42207932472229,42.88114397724257,11.638914165404344,1.54371163613443,0.0520654070763465,0.2404769192130485,0.4568466361011016,0.8548398655858784,1.0457840158242273,FLU01
2.4340696334838867,42.881616021873924,11.64001360637667,1.54349862523123,0.0502997625345925,0.2371650873742705,0.4564053482206102,0.8561056087512461,1.0416819382577454,FLU01
2.4400694370269775,42.882033304967536,11.641253855714183,1.54329110241072,0.0487922820408024,0.2341480527955905,0.4558481230080951,0.857319363676851,1.0376510680043571,FLU01
2.452059030532837,42.88240381638525,11.642620760659668,1.54308750259313,0.0474622984119821,0.2314335008145046,0.4553059597266178,0.8584185156248776,1.0339737504643771,FLU01
2.4640090465545654,42.8827372296937,11.644103433274097,1.54289987216222,0.0461563583438005,0.2290199961671706,0.454981509526802,0.8593085929564189,1.0310775167828707,FLU01
2.470029354095459,42.883041395087275,11.645694860091623,1.54274558230342,0.0449176132006591,0.2268748766680955,0.4549098771195792,0.859980931218967,1.0290185622992336,FLU01
2.482029438018799,42.88331346028144,11.647380519309593,1.54263680705154,0.0437477996313243,0.2249338833673795,0.455158302757008,0.8604195474139622,1.0278984709822798,FLU01
2.4940693378448486,42.883551998400435,11.64914018114672,1.54257487869855,0.0426360437811987,0.2231736589892878,0.455829160671316,0.86057856235541,1.0279317126898644,FLU01
2.500009298324585,42.88376003055964,11.65095875598331,1.54255322740222,0.0415818603632673,0.2215605645576255,0.4569783380648373,0.8604374838773212,1.0292206426556885,FLU01
2.5119893550872803,42.88393547998021,11.652826695182341,1.54256625997285,0.0405734868325279,0.2200918447175422,0.4585826502507565,0.860008909805051,1.031704210554926,FLU01
2.5240893363952637,42.88407722755983,11.654741878715754,1.54260114652572,0.0395975658718864,0.2187760822965319,0.460555430443774,0.8593356469277605,1.0351814162666677,FLU01
2.530069351196289,42.88419468643997,11.656697557216091,1.54264588673335,0.0385964335223659,0.2177057910696852,0.462831265803556,0.8584298010022452,1.0395521917372852,FLU01
2.547999382019043,42.88430340858531,11.658677922934714,1.54269095559481,0.0374485318251418,0.2169511433286807,0.465488432489102,0.8572341151000457,1.0450257908309273,FLU01
2.5541293621063232,42.88441177031473,11.660665681720275,1.54273073925802,0.0360877129268747,0.2164868965655693,0.4685960968989586,0.8557153724002963,1.0517376123712645,FLU01
2.560079336166382,42.884516650518435,11.662658620561388,1.54276093734464,0.0346227720530839,0.2162646825726216,0.4720792800346715,0.8539156890987948,1.0595060721451162,FLU01
2.572079658508301,42.88460883001153,11.664671644496025,1.54276975472774,0.0332748500564167,0.2162547719262097,0.4757333561110978,0.8519415659868566,1.0678776051544452,FLU01
2.5841193199157715,42.88468055003841,11.666727189724725,1.54274595755932,0.0322016648316547,0.2164397127689298,0.479419498459272,0.8498669590092516,1.0765452314080874,FLU01
2.59006929397583,42.884730470827435,11.668840854232258,1.54268187638561,0.0314567950551818,0.216858925519377,0.4830335387574365,0.8477389202478,1.0853007066514744,FLU01
2.60206937789917,42.88476974138803,11.67102336898779,1.54257113056704,0.0310161234896433,0.2174272990441092,0.4865429651834839,0.8455999720580186,1.093999463545117,FLU01
2.613939046859741,42.88479986530456,11.67327800974033,1.54241693306298,0.0307886761841473,0.2180116733790665,0.4899156854920786,0.8435079067786583,1.102447933743528,FLU01
2.6199896335601807,42.88481251795065,11.675609676411398,1.54221797033284,0.0307202979135627,0.2184464725151338,0.4930982154029111,0.8415411765969988,1.11038165199574,FLU01
2.6320292949676514,42.88480217662527,11.678023539218714,1.5419711396111,0.0307829768373927,0.2186669376934052,0.4960173556197015,0.8397642297817023,1.1175652282948343,FLU01
2.6441493034362793,42.88476305301219,11.680520272169133,1.54167746858156,0.0309382194724273,0.2186712400361263,0.4986398938634094,0.8382028224748629,1.1239035294362594,FLU01
2.650139331817627,42.88470028656229,11.683099766727707,1.54133887626262,0.0311390445949794,0.218425969982476,0.5009616827047536,0.8368738542937927,1.1293474827000871,FLU01
2.6619694232940674,42.88462740811292,11.685760211750392,1.54095850641436,0.0313288396524255,0.2178766623024536,0.5030323442513276,0.8357671472766737,1.133961968756965,FLU01
2.674079656600952,42.88456244400686,11.688499968872975,1.5405361027173,0.0315121991542993,0.2170035261208253,0.5049193164295904,0.8348490491411384,1.137894311834636,FLU01
2.680079460144043,42.88452260779695,11.691317121099871,1.54007016828876,0.0317509583873503,0.2158848254490153,0.5066440606247685,0.8340847766360316,1.1412659765192723,FLU01
2.6920394897460938,42.88452553137358,11.694203313844469,1.53956155516516,0.0319628817461979,0.2145645803480333,0.5083284342106713,0.8333922353990815,1.1443908922335193,FLU01
2.704129457473755,42.884588558244104,11.697145568836504,1.53902066952282,0.0321128522533791,0.2130193472590135,0.5101072070689255,0.83269571856101,1.1475739502500584,FLU01
2.7099993228912354,42.88472046899551,11.700136460681222,1.53846067733358,0.0320763458528815,0.2111273990186194,0.5120849909505005,0.8319647176795327,1.1509627015469426,FLU01
2.72214937210083,42.88492104504439,11.703179958256328,1.53788207063018,0.0317896095811896,0.2087826872303066,0.5142554904461959,0.8312283084577364,1.1544638004610048,FLU01
2.7341694831848145,42.88517337466783,11.706286344191028,1.53728417419973,0.0314672213041277,0.2060750781575435,0.5164746724621062,0.8305400585467985,1.1578403881871333,FLU01
2.740049362182617,42.88545762304739,11.709461699313067,1.53666555244305,0.0313697662778143,0.2032443297643896,0.5185909256255867,0.8299223650686229,1.1609444473051378,FLU01
2.7520694732666016,42.88576859335808,11.712703460026717,1.53602316640673,0.0316030075454566,0.2004573207230801,0.5206233183676371,0.8293186799141062,1.1639545042012904,FLU01
2.7639496326446533,42.8861197695951,11.716005521976626,1.53536187760496,0.0321562082849537,0.1978465497148814,0.522652284619722,0.8286478808374741,1.16714951003996,FLU01
2.770029306411743,42.886541000454145,11.719362486407874,1.53468057065241,0.0329024166645807,0.1953580233884264,0.5248683677102238,0.8278078703736772,1.1709284517339411,FLU01
2.787879467010498,42.8870425509499,11.722761618707011,1.53398689864873,0.0336629306993718,0.1929723518121652,0.5274143690715977,0.8267179457527335,1.1755954078185185,FLU01
2.794029474258423,42.887612844053365,11.726191811141632,1.5332873727057,0.0342876454515327,0.1905852159667683,0.5302891582489883,0.825405985844463,1.1810577858066644,FLU01
2.799919366836548,42.88822225008789,11.72964396302524,1.53259108487504,0.0347626488835509,0.1881442100050231,0.5334172033343455,0.823929245549125,1.1871002610849195,FLU01
2.8119194507598877,42.88883937557739,11.733113531387517,1.53190268533454,0.0352136575120566,0.1856135207483905,0.5366700820174044,0.8223702586471878,1.193408542009719,FLU01
2.824009656906128,42.88944506643929,11.736600187386387,1.53121826962984,0.0357534917842096,0.1829793127904404,0.5399990851320609,0.8207565089431286,1.199872562270191,FLU01
2.829969644546509,42.89002498958871,11.74010515411311,1.53053529855771,0.0364836968004416,0.1803297288871201,0.5432971172795293,0.81913269444152,1.206301288727291,FLU01
2.8420896530151367,42.890561511756005,11.743630183610605,1.52984896249034,0.0373357602499727,0.1777725762047221,0.5464800114052596,0.8175344330917201,1.2125474591675818,FLU01
2.854029655456543,42.89104392727131,11.747174695807473,1.52915737945155,0.0381972605313724,0.1754237912918653,0.5494998821734431,0.8159763122959259,1.2185501327382164,FLU01
2.859989643096924,42.89146973996685,11.750738624054009,1.52846193309833,0.0389640322505351,0.1732547457389723,0.552358446586362,0.8144720644407666,1.2242800720139608,FLU01
2.87196946144104,42.89183806822621,11.7543208959857,1.52776515722566,0.0395467812368183,0.171153710496813,0.5551190851708917,0.813010000403447,1.2298123658596538,FLU01
2.883929491043091,42.89214254773424,11.757921500305542,1.52707138415197,0.0400723123140013,0.1691476375889762,0.5577366189639831,0.8116114528211774,1.235064775745497,FLU01
2.889939308166504,42.89237162669542,11.761539402909307,1.52638381135661,0.0407477640283717,0.1673484967059422,0.5600895139721132,0.810329461833538,1.2398229400409515,FLU01
2.901939630508423,42.892523997526496,11.765167244603845,1.52569981533445,0.0417076958011811,0.1658606283594426,0.5622008798926584,0.8091235324220198,1.244211569565265,FLU01
2.9139294624328613,42.892619990577714,11.76879057485661,1.52501943469264,0.042903468446,0.1646827456991666,0.5641775663784557,0.8079248475319779,1.248481195827389,FLU01
2.919999361038208,42.89269321214897,11.77239957977855,1.52434020379926,0.0440930986549839,0.1636722019632123,0.5662440158711258,0.8066194415247226,1.253074908074835,FLU01
2.931999444961548,42.8927727329492,11.775991387676697,1.52365397187058,0.0451194765978642,0.1628127695551436,0.568549617559918,0.8051133878366387,1.25833876052085,FLU01
2.9440693855285645,42.89286357015726,11.779565899009754,1.52295459721053,0.0459879804173065,0.1621935346340907,0.5710944459291406,0.8033862687455676,1.264329105495342,FLU01
2.950009346008301,42.892959225956474,11.78311396265218,1.5222460684116,0.0467478271381581,0.1618352524248339,0.5738613608225075,0.8014406592414632,1.2710236195367255,FLU01
2.9619996547698975,42.893059906066355,11.786619927541665,1.52153716506699,0.0473618326943466,0.1615771359034858,0.5769003591487696,0.7992719572029786,1.2784532773118449,FLU01
2.9740190505981445,42.89317152460262,11.790076239093707,1.52082798135061,0.0477630704809246,0.1612184174370126,0.580290792353447,0.7968625397690294,1.2866981183164103,FLU01
2.979999303817749,42.89329506041804,11.793484164493748,1.52011160894568,0.0479497242124646,0.1607614825133895,0.5840122810306582,0.7942205142738464,1.295717370754324,FLU01
2.9920594692230225,42.89342144914781,11.796834803208014,1.51937652042766,0.0478973013796379,0.1604434150393903,0.5877519464078899,0.7915247365589928,1.3048760151754035,FLU01
3.0040390491485596,42.89354916825778,11.800161968853445,1.51861837113947,0.0478354344099082,0.1602864920766998,0.5917546032728032,0.7885724451044487,1.3148205288766597,FLU01
3.0099096298217773,42.893667657479455,11.80343138236799,1.51782524852222,0.0476226569836213,0.1604123552326183,0.5957245845202003,0.7855648784338435,1.3248775341267618,FLU01
3.027949333190918,42.89378102235332,11.80664036976782,1.51699455409666,0.0472047739046974,0.1607360632556047,0.599686265260902,0.7825036808521272,1.335057647892104,FLU01
3.033949375152588,42.89389131886492,11.8097832119538,1.5161271757545,0.0465488258801987,0.1611168320895453,0.6036379148857697,0.7794201953625302,1.3452733643072905,FLU01
3.039999485015869,42.893984742849625,11.812854255976163,1.51522858114506,0.0457144003427578,0.1615192128549221,0.6074721370121936,0.7764015328641922,1.355235034101257,FLU01
3.0519394874572754,42.89404446843173,11.815849516818957,1.51430404794769,0.0447659119361946,0.1619050832208451,0.6110976477187446,0.7735259673135668,1.3646875570266002,FLU01
3.0639593601226807,42.89406125668302,11.818768477460935,1.51335620620143,0.043760594711918,0.162251185119487,0.614476876080986,0.7708292496004115,1.3735181123717315,FLU01
3.069969654083252,42.894039192316995,11.821617625038243,1.51237857598469,0.0426956997731258,0.1625732793046714,0.6176077151438476,0.7683148549076767,1.3817245643997178,FLU01
3.0820393562316895,42.89398710988917,11.824407709775812,1.51135306901832,0.0415074611808342,0.1629281160814467,0.6204904835247991,0.765978537239545,1.3893339578498956,FLU01
3.0940394401550293,42.89390411290469,11.827142452852343,1.5102650298136,0.0401455372130548,0.1634354146552506,0.6230316466283061,0.7638774563881061,1.3961709195169376,FLU01
3.100039482116699,42.893790261204686,11.829817997300268,1.50911338387359,0.0385820257145026,0.1641382265893531,0.6251364522723527,0.7620856158622888,1.4020091483488253,FLU01
3.1119296550750732,42.893660523788185,11.832424437247994,1.50791137767595,0.0367325471021962,0.1648660533398561,0.6269010007319228,0.7605688921595717,1.406981705269563,FLU01
3.1239893436431885,42.89353813314665,11.834952569062466,1.50667536382676,0.0345789656586521,0.1654052313556238,0.6284866009600316,0.7592430421069898,1.4113683826182697,FLU01
3.129929304122925,42.893440519936576,11.837400153971544,1.5054140657414,0.0321569158467575,0.1656891256598685,0.6299937856588379,0.7580375165072893,1.4153875162609424,FLU01
3.142059326171875,42.893371822321114,11.839769166321219,1.50412428279319,0.029661256098746,0.1658958463603687,0.6313317687339651,0.7569801687192768,1.4189203857622492,FLU01
3.1540496349334717,42.893334128806146,11.84206502773975,1.50279680342292,0.0272804803471814,0.1662126166027894,0.6324353933477241,0.7560784448158739,1.4219204198444944,FLU01
3.1600394248962402,42.89334494673267,11.844287914282518,1.50142290008873,0.0249908269548019,0.1667652312713521,0.6333982990817832,0.7552293763668304,1.4247113188619345,FLU01
3.171999454498291,42.89343985385358,11.846436996352907,1.49998699757047,0.0226780820752176,0.1674581920086218,0.634386502049003,0.7543190469162393,1.4276649635550132,FLU01
3.1840193271636963,42.89363969789156,11.848511857518645,1.4984787581082,0.0201718758704008,0.1682131624740001,0.6355315652446933,0.7532576298797078,1.4310733430832707,FLU01
3.189939498901367,42.89393954278694,11.850513334399352,1.49689451144599,0.0175054223405843,0.1690524200316285,0.6367683511018277,0.7520910227526898,1.4347833479750864,FLU01
3.2019193172454834,42.89432195283098,11.852439704189749,1.49524437829103,0.0148371153029822,0.1699270897632021,0.6380221088940468,0.750887763075473,1.4385739290853825,FLU01
3.2139196395874023,42.894767250725636,11.854285762117627,1.49353989988041,0.0123424031786058,0.1707981604475668,0.639294126520569,0.7496523682799958,1.4424312028155533,FLU01
3.2199294567108154,42.89526000190972,11.856053075519867,1.49178450361026,0.0101726721336894,0.1716432317436445,0.6406023963714172,0.7483740291468269,1.446395008387053,FLU01
3.2319693565368652,42.89578781067257,11.8577507498037,1.48997432329147,0.008446722930115,0.1724462260045858,0.6419174058334145,0.7470829914384456,1.4503803624628295,FLU01
3.244019031524658,42.89633653720921,11.859385087732619,1.48809759135588,0.0072916954858467,0.1734502798293216,0.6430812502563781,0.7458608028129413,1.4541318355430808,FLU01
3.2499196529388428,42.896902583467636,11.860962618289136,1.48614497658862,0.0067669875964037,0.1747717297582272,0.6440242747131296,0.7447427636012415,1.457543714969586,FLU01
3.2679896354675293,42.897507333797876,11.862479924252398,1.48411702771996,0.0066672251119785,0.1763167228327184,0.6448596112228507,0.7436558634021186,1.4608498317307526,FLU01
3.274019479751587,42.89818909387395,11.863927314749844,1.48201235014098,0.0066408671869879,0.1778341122711643,0.6458293161209643,0.7424523027336227,1.4645167431219694,FLU01
3.280059337615967,42.89898152077103,11.865295371852028,1.47983877194213,0.0062946899678418,0.178997710555948,0.6471862834168629,0.7409926524946152,1.4689838619098403,FLU01
3.292079448699951,42.89989726962904,11.866580704258013,1.47760548628286,0.0054190439745019,0.1796078561734057,0.6489900542635034,0.7392723188583828,1.474264072947857,FLU01
3.3041493892669678,42.90091941675291,11.867788597323909,1.47531744343278,0.0040830313067759,0.1797609915705609,0.6511251217149885,0.7373638115859484,1.4801190746954294,FLU01
3.3099193572998047,42.90202398769361,11.868927754787194,1.47296947145703,0.0024876986887712,0.1796185823058354,0.6534579049165887,0.7353392025097657,1.4863132531578465,FLU01
3.32197904586792,42.903189990399824,11.869997432465311,1.47054979389952,0.0007237570833588,0.1793498671423359,0.6558940932806822,0.7332366873876556,1.4927178964783865,FLU01
3.3339996337890625,42.904399964434106,11.871002091347748,1.46804373915906,-0.0011451829738878,0.179099029614484,0.6583040394743173,0.7311347466499614,1.4990860928262182,FLU01
3.339919328689575,42.90563755026869,11.871946414628496,1.46544238323914,-0.0030973493051408,0.1790346596983002,0.6605264856344382,0.7291376816688425,1.5050960322881028,FLU01
3.3519694805145264,42.90688849515709,11.872826012246662,1.46274654340056,-0.0050900885021133,0.1792529911838574,0.6624139453297526,0.727358385655484,1.5104079266839134,FLU01
3.3639492988586426,42.90814499188582,11.873632332876639,1.45996792462038,-0.007146518092973,0.1796635792911882,0.6639674922456568,0.7258216687289236,1.51495340237812,FLU01
3.370009422302246,42.90940336585527,11.874355393910207,1.45711557023834,-0.0093283346387316,0.180181784974702,0.6652608917854603,0.7244828862002277,1.5188692322019628,FLU01
3.381939649581909,42.910659439012306,11.874993489661279,1.45419139359038,-0.0115880098116118,0.1807696643826833,0.6663257647869947,0.7233242852611854,1.5222129441670778,FLU01
3.39397931098938,42.91191003171434,11.875553169976683,1.4511978638944,-0.0139070686084531,0.1813960699061288,0.6671170662028285,0.7223966218402891,1.5248331726958089,FLU01
3.4000394344329834,42.91314431622777,11.876043609583746,1.44813732842526,-0.0162387782252042,0.1821037335613674,0.6675903556518566,0.7217323945517415,1.526634374679296,FLU01
3.4119293689727783,42.91435997925328,11.876477487312798,1.44500951751946,-0.0185485499531015,0.1829470337442221,0.6677311467852778,0.721333105958437,1.5276137183796834,FLU01
3.423929452896118,42.91556384426258,11.876865599142718,1.44180740120836,-0.0208671105356513,0.1840359771875705,0.6676318208687312,0.7210846514536358,1.5281099229955346,FLU01
3.4299893379211426,42.916770970710786,11.877212723879211,1.43853245286749,-0.0232307041462765,0.1853645762725635,0.667388538370542,0.7208972514164502,1.528388910264647,FLU01
3.4420394897460938,42.917996921258236,11.877527954055552,1.43519999916995,-0.025676323353503,0.186758308812292,0.6670881655508724,0.7207325716870238,1.5285633775175949,FLU01
3.4540493488311768,42.91924550881322,11.877816299688789,1.43182436741861,-0.0281236395313288,0.1881804124814774,0.6667954114455737,0.7205422073223336,1.5287890408275298,FLU01
